     2.11           OBSERVATION DATA    M (MIXED)           RINEX VERSION / TYPE
CONVBIN demo5                           20191109 203112 UTC PGM / RUN BY / DATE 
log: rover_201911091804.log                                 COMMENT             
format: u-blox                                              COMMENT             
                                                            MARKER NAME         
                                                            MARKER NUMBER       
                                                            OBSERVER / AGENCY   
                                                            REC # / TYPE / VERS 
                                                            ANT # / TYPE        
  4119113.5341 -4554267.8973 -1722101.9985                  APPROX POSITION XYZ 
        0.0000        0.0000        0.0000                  ANTENNA: DELTA H/E/N
     1     1                                                WAVELENGTH FACT L1/2
     2    C1    L1                                          # / TYPES OF OBSERV 
  2019    11     9    18     4   58.9990053     GPS         TIME OF FIRST OBS   
  2019    11     9    19     6   39.9990053     GPS         TIME OF LAST OBS    
                                                            END OF HEADER       
 19 11  9 18  4 58.9990053  0 16R 9G15G 5G24R20R19G 2G31G25R21G12R 5
                                R16G20G29G21
  19114337.476 1 102069493.456 1
  24860179.188 9                
  22150947.936 1 116404030.836 1
  22307571.493 1 117227077.237 1
  20809178.709 1 111276116.660 1
  22634650.526 2 121080105.314 1
  23364557.532 1 122781509.312 1
  24687743.396 1 129734992.279 1
  21070128.809 1 110724312.746 1
  22822719.468 1 122128882.256 1
  20682135.259 1 108685352.290 1
  23235690.095 1 124208131.456 1
  20978536.013 1 112063413.539 1
  24972100.138 2 131229293.178 1
  22211552.019 1 116722506.786 1
  23272864.350 1 122299725.258 1
 19 11  9 18  4 59.9990053  0 16R 9G15G 5G24R20R19G 2G31G25R21G12R 5
                                R16G20G29G21
  19114190.789 1 102068708.505 1
  24860149.558 9               6
  22150960.780 1 116404097.274 1
  22308134.612 1 117230035.405 1
  20809372.511 1 111277153.811 1
  22635142.587 2 121082735.684 1
  23365198.304 1 122784877.950 1
  24687217.830 1 129732228.175 1
  21069697.475 1 110722045.729 1
  22822471.221 1 122127553.512 1
  20682149.498 1 108685423.489 1
  23235219.777 1 124205617.906 1
  20979202.227 1 112066972.601 1
  24971460.099 2 131225930.932 1
  22211493.107 1 116722197.235 1
  23272322.905 1 122296880.021 1
 19 11  9 18  5  0.9990053  0 16R 9G15G 5G24R20R19G 2G31G25R21G12R 5
                                R16G20G29G21
  19114043.998 1 102067924.424 1
  24860118.112 8 130640781.75134
  22150973.204 1 116404164.244 1
  22308697.835 1 117232993.723 1
  20809566.208 1 111278191.263 1
  22635634.474 2 121085365.894 1
  23365839.285 1 122788246.658 1
  24686691.531 1 129729464.452 1
  21069266.036 1 110719778.982 1
  22822223.219 1 122126225.180 1
  20682162.830 1 108685495.183 1
  23234749.808 1 124203104.336 1
  20979868.511 1 112070532.154 1
  24970820.269 2 131222568.497 1
  22211433.637 1 116721887.723 1
  23271781.843 1 122294035.082 1
 19 11  9 18  5  1.9990053  0 16R 9G15G 5G24R20R19G 2G31G25R21G12R 5
                                R16G20G29G21
  19113897.940 1 102067141.309 1
  24860084.817 4 130640596.39023
  22150986.013 1 116404231.816 1
  22309261.128 1 117235952.258 1
  20809760.080 1 111279229.011 1
  22636126.291 2 121087995.955 1
  23366480.441 1 122791615.523 1
  24686165.826 1 129726701.227 1
  21068834.632 1 110717512.590 1
  22821975.251 1 122124897.335 1
  20682176.685 1 108685567.434 1
  23234279.350 1 124200590.820 1
  20980535.389 1 112074092.286 1
  24970180.161 2 131219206.011 1
  22211374.655 1 116721578.269 1
  23271240.817 1 122291190.519 1
 19 11  9 18  5  2.9990053  0 16R 9G15G 5G24R20R19G 2G31G25R21G12R 5
                                R16G20G29G21
  19113751.463 1 102066358.925 1
  24860052.814 4 130640410.59023
  22150998.926 1 116404299.806 1
  22309824.037 1 117238910.821 1
  20809953.847 1 111280266.917 1
  22636618.143 2 121090625.795 1
  23367121.527 1 122794984.334 1
  24685639.807 1 129723938.256 1
  21068403.227 1 110715246.364 1
  22821727.179 1 122123569.754 1
  20682191.204 1 108685640.064 1
  23233809.206 1 124198077.127 1
  20981202.127 1 112077652.808 1
  24969540.471 2 131215843.266 1
  22211315.394 1 116721268.718 1
  23270699.721 1 122288346.140 1
 19 11  9 18  5  3.9990053  0 16R 9G15G 5G24R20R19G 2G31G25R21G12R 5
                                R16G20G29G21
  19113605.404 1 102065577.329 1
  24860018.821 4 130640224.42523
  22151011.699 1 116404368.249 1
  22310387.156 1 117241869.453 1
  20810147.719 1 111281304.972 1
  22637109.820 2 121093255.348 1
  23367762.543 1 122798353.150 1
  24685114.171 1 129721175.620 1
  21067972.277 1 110712980.334 1
  22821479.037 1 122122242.502 1
  20682204.641 1 108685713.095 1
  23233339.202 1 124195563.304 1
  20981868.411 1 112081213.736 1
  24968900.222 2 131212480.259 1
  22211256.517 1 116720959.064 1
  23270158.031 1 122285501.989 1
 19 11  9 18  5  4.9990053  0 16R 9G15G 5G24R20R19G 2G31G25R21G12R 5
                                R16G20G29G21
  19113459.206 1 102064796.579 1
  24859981.861 4 130640037.96023
  22151024.717 1 116404437.142 1
  22310950.239 1 117244828.188 1
  20810341.382 1 111282343.227 1
  22637601.253 2 121095884.689 1
  23368403.245 1 122801721.982 1
  24684588.676 1 129718413.303 1
  21067541.047 1 110710714.516 1
  22821231.069 1 122120915.623 1
  20682218.985 1 108685786.558 1
  23232869.337 1 124193049.390 1
  20982534.939 1 112084775.148 1
  24968260.357 1 131209117.037 1
  22211197.466 1 116720649.366 1
  23269616.725 1 122282658.088 1
 19 11  9 18  5  5.9990053  0 16R 9G15G 5G24R20R19G 2G31G25R21G12R 5
                                R16G20G29G21
  19113312.939 1 102064016.670 1
  24859946.263 4 130639851.14623
  22151037.910 1 116404506.565 1
  22311513.323 1 117247787.014 1
  20810535.847 1 111283381.706 1
  22638092.477 2 121098513.836 1
  23369044.087 1 122805090.852 1
  24684063.180 1 129715651.354 1
  21067110.131 1 110708448.974 1
  22820983.102 1 122119589.143 1
  20682233.120 1 108685860.476 1
  23232399.019 1 124190535.402 1
  20983201.607 1 112088336.982 1
  24967620.423 1 131205753.650 1
  22211138.763 1 116720339.636 1
  23269075.454 1 122279814.453 1
 19 11  9 18  5  6.9990053  0 16R 9G15G 5G24R20R19G 2G31G25R21G12R 5
                                R16G20G29G21
  19113166.845 1 102063237.633 1
  24859910.769 4 130639663.66513
  22151051.381 1 116404576.542 1
  22312076.825 1 117250746.023 1
  20810729.858 1 111284420.507 1
  22638584.224 2 121101142.819 1
  23369684.999 1 122808459.823 1
  24683537.335 1 129712889.846 1
  21066678.936 1 110706183.736 1
  22820735.204 1 122118263.113 1
  20682246.661 1 108685934.907 1
  23231928.631 1 124188021.423 1
  20983868.241 1 112091899.386 1
  24966980.524 1 131202390.121 1
  22211079.851 1 116720029.911 1
  23268534.114 1 122276971.140 1
 19 11  9 18  5  7.9990053  0 16R 9G15G 5G24R20R19G 2G31G25R21G12R 5
                                R16G20G29G21
  19113020.578 1 102062459.509 1
  24859877.125 2 130639476.401 2
  22151065.202 1 116404647.103 1
  22312640.188 1 117253705.221 1
  20810924.289 1 111285459.602 1
  22639075.901 2 121103771.679 1
  23370325.422 1 122811828.923 1
  24683010.897 1 129710128.792 1
  21066247.741 1 110703918.837 1
  22820487.236 1 122116937.512 1
  20682261.214 1 108686009.881 1
  23231458.313 1 124185507.459 1
  20984535.083 1 112095462.321 1
  24966340.275 1 131199026.503 1
  22211020.206 1 116719720.234 1
  23267993.227 1 122274128.197 1
 19 11  9 18  5  8.9990053  0 16R 9G15G 5G24R20R19G 2G31G25R21G12R 5
                                R16G20G29G21
  19112874.415 1 102061682.114 1
  24859847.564 4 130639288.666 3
  22151078.604 1 116404718.029 1
  22313203.202 1 117256664.405 1
  20811118.196 1 111286498.799 1
  22639567.369 2 121106400.255 1
  23370966.473 1 122815197.932 1
  24682485.156 1 129707367.941 1
  21065816.826 1 110701654.036 1
  22820239.408 1 122115612.121 1
  20682275.419 1 108686085.186 1
  23230987.820 1 124182993.326 1
  20985202.240 1 112099025.612 1
  24965700.341 1 131195662.560 1
  22210960.841 1 116719410.423 1
  23267452.165 1 122271285.396 1
 19 11  9 18  5  9.9990053  0 16R 9G15G 5G24R20R19G 2G31G25R21G12R 5
                                R16G20G29G21
  19112728.880 1 102060905.576 1
  24859810.325 8 130639100.657 3
  22151092.005 1 116404789.470 1
  22313766.320 1 117259623.732 1
  20811312.382 1 111287538.223 1
  22640059.047 2 121109028.620 1
  23371607.559 1 122818566.987 1
  24681959.730 1 129704607.487 1
  21065386.015 1 110699389.520 1
  22819991.301 1 122114287.157 1
  20682289.763 1 108686160.959 1
  23230517.432 1 124180479.127 1
  20985869.536 1 112102589.374 1
  24965060.162 1 131192298.414 1
  22210901.405 1 116719100.569 1
  23266911.139 1 122268442.873 1
 19 11  9 18  5 10.9990053  0 16R 9G15G 5G24R20R19G 2G31G25R21G12R 5
                                R16G20G29G21
  19112583.520 1 102060129.919 1
  24859766.386 4 130638912.408 2
  22151105.512 1 116404861.490 1
  22314329.369 1 117262583.271 1
  20811506.777 1 111288577.956 1
  22640550.619 2 121111656.852 1
  23372248.366 1 122821936.177 1
  24681434.304 1 129701847.470 1
  21064954.960 1 110697125.324 1
  22819743.613 1 122112962.675 1
  20682304.421 1 108686237.271 1
  23230046.625 1 124177964.929 1
  20986536.554 1 112106153.671 1
  24964419.914 1 131188934.195 1
  22210842.074 1 116718790.767 1
  23266370.007 1 122265600.701 1
 19 11  9 18  5 11.9990053  0 16R 9G15G 5G24R20R19G 2G31G25R21G12R 5
                                R16G20G29G21
  19112438.473 1 102059355.032 1
  24859728.658 4 130638723.803 3
  22151119.367 1 116404933.934 1
  22314892.662 1 117265542.837 1
  20811701.242 1 111289617.814 1
  22641041.703 2 121114284.832 1
  23372889.312 1 122825305.319 1
  24680908.739 1 129699087.781 1
  21064524.114 1 110694861.296 1
  22819495.854 1 122111638.479 1
  20682317.893 1 108686313.965 1
  23229576.342 1 124175450.581 1
  20987204.024 1 112109718.369 1
  24963779.630 1 131185569.701 1
  22210782.848 1 116718480.852 1
  23265829.051 1 122262758.734 1
 19 11  9 18  5 12.9990053  0 16R 9G15G 5G24R20R19G 2G31G25R21G12R 5
                                R16G20G29G21
  19112293.706 1 102058581.208 1
  24859702.762 4 130638535.025 3
  22151133.013 1 116405007.064 1
  22315455.955 1 117268502.712 1
  20811896.301 1 111290658.087 1
  22641532.997 2 121116912.799 1
  23373530.748 1 122828674.696 1
  24680383.313 1 129696328.606 1
  21064093.303 1 110692597.724 1
  22819248.026 1 122110314.825 1
  20682332.970 1 108686391.295 1
  23229106.547 1 124172936.353 1
  20987871.041 1 112113283.722 1
  24963139.800 1 131182205.186 1
  22210723.832 1 116718171.072 1
  23265288.443 1 122259917.217 1
 19 11  9 18  5 13.9990053  0 16R 9G15G 5G24R20R19G 2G31G25R21G12R 5
                                R16G20G29G21
  19112149.253 1 102057808.153 1
  24859667.164 8 130638345.993 4
  22151147.253 1 116405080.612 1
  22316019.213 1 117271462.622 1
  20812091.115 1 111291698.501 1
  22642023.906 2 121119540.494 1
  23374172.113 1 122832044.029 1
  24679858.201 1 129693569.718 1
  21063662.806 1 110690334.293 1
  22818999.989 1 122108991.480 1
  20682347.733 1 108686469.012 1
  23228636.438 1 124170421.961 1
  20988538.547 1 112116849.447 1
  24962499.657 1 131178840.429 1
  22210665.164 1 116717861.199 1
  23264747.696 1 122257075.895 1
 19 11  9 18  5 14.9990053  0 16R 9G15G 5G24R20R19G 2G31G25R21G12R 5
                                R16G20G29G21
  19112005.010 1 102057035.809 1
  24859629.820 8 130638156.317 4
  22151161.038 1 116405154.602 1
  22316582.332 1 117274422.550 1
  20812285.929 1 111292739.063 1
  22642515.235 2 121122167.910 1
  23374813.548 1 122835413.346 1
  24679332.949 1 129690811.126 1
  21063232.100 1 110688071.068 1
  22818752.475 1 122107668.455 1
  20682362.426 1 108686547.117 1
  23228165.666 1 124167907.468 1
  20989206.088 1 112120415.578 1
  24961859.443 1 131175475.399 1
  22210606.462 1 116717551.231 1
  23264206.913 1 122254234.789 1
 19 11  9 18  5 15.9990053  0 16R 9G15G 5G24R20R19G 2G31G25R21G12R 5
                                R16G20G29G21
  19111860.766 1 102056264.393 1
  24859592.407 4 130637966.479 4
  22151175.313 1 116405229.131 1
  22317145.765 1 117277382.598 1
  20812480.918 1 111293779.878 1
  22643006.005 2 121124795.208 1
  23375455.192 1 122838782.721 1
  24678808.151 1 129688052.957 1
  21062801.498 1 110685808.130 1
  22818505.555 1 122106345.845 1
  20682377.538 1 108686625.713 1
  23227695.208 1 124165392.917 1
  20989873.419 1 112123982.191 1
  24961219.020 1 131172110.221 1
  22210547.480 1 116717241.250 1
  23263666.026 1 122251393.982 1
 19 11  9 18  5 16.9990053  0 16R 9G15G 5G24R20R19G 2G31G25R21G12R 5
                                R16G20G29G21
  19111716.732 1 102055493.949 1
  24859554.121 4 130637776.458 5
  22151189.761 1 116405304.259 1
  22317708.918 1 117280342.890 1
  20812675.104 1 111294821.052 1
  22643496.635 2 121127422.313 1
  23376096.453 1 122842152.254 1
  24678283.423 1 129685295.226 1
  21062370.652 1 110683545.548 1
  22818258.669 1 122105023.730 1
  20682391.916 1 108686704.891 1
  23227224.471 1 124162878.435 1
  20990540.890 1 112127549.425 1
  24960578.527 1 131168744.999 1
  22210488.463 1 116716931.341 1
  23263125.523 1 122248553.567 1
 19 11  9 18  5 17.9990053  0 16R 9G15G 5G24R20R19G 2G31G25R21G12R 5
                                R16G20G29G21
  19111572.908 1 102054724.155 1
  24859517.999 9                
  22151203.757 1 116405379.752 1
  22318271.897 1 117283303.159 1
  20812869.813 1 111295862.300 1
  22643987.684 2 121130049.155 1
  23376737.679 1 122845521.680 1
  24677758.381 1 129682537.732 1
  21061940.225 1 110681283.068 1
  22818011.644 1 122103701.857 1
  20682407.412 1 108686784.387 1
  23226754.118 1 124160363.725 1
  20991208.151 1 112131116.962 1
  24959938.139 1 131165379.374 1
  22210429.307 1 116716621.270 1
  23262585.195 1 122245713.283 1
 19 11  9 18  5 18.9990053  0 16R 9G15G 5G24R20R19G 2G31G25R21G12R 5
                                R16G20G29G21
  19111428.804 1 102053955.362 1
  24859480.272 9                
  22151218.380 1 116405455.877 1
  22318835.330 1 117286263.660 1
  20813064.558 1 111296903.917 1
  22644478.489 2 121132675.896 1
  23377378.974 1 122848891.283 1
  24677233.862 1 129679780.758 1
  21061509.833 1 110679020.991 1
  22817764.514 1 122102380.468 1
  20682422.454 1 108686864.469 1
  23226283.381 1 124157849.080 1
  20991875.866 1 112134685.111 1
  24959297.751 1 131162013.770 1
  22210370.849 1 116716311.278 1
  23262044.552 1 122242873.403 1
 19 11  9 18  5 19.9990053  0 16R 9G15G 5G24R20R19G 2G31G25R21G12R 5
                                R16G20G29G21
  19111284.839 1 102053187.533 1
  24859441.602 9                
  22151232.759 1 116405532.629 1
  22319398.832 1 117289224.436 1
  20813259.931 1 111297945.897 1
  22644969.224 2 121135302.592 1
  23378020.200 1 122852261.064 1
  24676709.134 1 129677024.270 1
  21061079.615 1 110676759.287 1
  22817517.907 1 122101059.599 1
  20682437.496 1 108686945.145 1
  23225812.539 1 124155334.507 1
  20992543.582 1 112138253.861 1
  24958657.258 1 131158648.083 1
  22210311.972 1 116716001.394 1
  23261504.328 1 122240033.930 1
 19 11  9 18  5 20.9990053  0 16R 9G15G 5G24R20R19G 2G31G25R21G12R 5
                                R16G20G29G21
  19111141.329 1 102052420.535 1
  24859403.247 9                
  22151247.766 1 116405609.878 1
  22319962.125 1 117292185.306 1
  20813454.780 1 111298988.102 1
  22645459.924 1 121137929.044 1
  23378661.391 1 122855630.881 1
  24676184.476 1 129674268.127 1
  21060649.397 1 110674497.825 1
  22817271.440 1 122099739.128 1
  20682453.271 1 108687026.268 1
  23225341.697 1 124152819.834 1
  20993211.576 1 112141823.069 1
  24958016.766 1 131155282.206 1
  22210253.234 1 116715691.478 1
  23260963.895 1 122237194.727 1
 19 11  9 18  5 21.9990053  0 16R 9G15G 5G24R20R19G 2G31G25R21G12R 5
                                R16G20G29G21
  19110997.958 1 102051654.426 1
  24859364.577 9                
  22151262.773 1 116405687.689 1
  22320525.488 1 117295146.385 1
  20813649.943 1 111300030.594 1
  22645950.868 2 121140555.375 1
  23379302.686 1 122859000.793 1
  24675659.853 1 129671512.430 1
  21060219.354 1 110672236.682 1
  22817024.904 1 122098419.081 1
  20682468.348 1 108687107.904 1
  23224870.751 1 124150305.174 1
  20993879.919 1 112145392.809 1
  24957376.377 1 131151916.209 1
  22210194.462 1 116715381.576 1
  23260423.985 1 122234355.849 1
 19 11  9 18  5 22.9990053  0 16R 9G15G 5G24R20R19G 2G31G25R21G12R 5
                                R16G20G29G21
  19110854.761 1 102050889.107 1
  24859324.721 9                
  22151277.536 1 116405765.940 1
  22321088.781 1 117298107.493 1
  20813845.106 1 111301073.208 1
  22646441.708 2 121143181.435 1
  23379944.191 1 122862370.675 1
  24675135.474 1 129668757.045 1
  21059789.381 1 110669975.720 1
  22816778.332 1 122097099.332 1
  20682484.438 1 108687189.932 1
  23224400.118 1 124147790.406 1
  20994548.193 1 112148962.928 1
  24956735.920 1 131148549.968 1
  22210135.794 1 116715071.582 1
  23259883.727 1 122231517.184 1
 19 11  9 18  5 23.9990053  0 16R 9G15G 5G24R20R19G 2G31G25R21G12R 5
                                R16G20G29G21
  19110711.355 1 102050124.689 1
  24859288.843 9                
  22151292.753 1 116405844.742 1
  22321652.388 1 117301068.780 1
  20814039.955 1 111302116.148 1
  22646932.897 2 121145807.378 1
  23380585.591 1 122865740.656 1
  24674611.339 1 129666002.044 1
  21059359.582 1 110667715.063 1
  22816532.109 1 122095780.008 1
  20682499.654 1 108687272.472 1
  23223929.556 1 124145275.668 1
  20995216.362 1 112152533.529 1
  24956095.497 2 131145183.606 1
  22210077.057 1 116714761.605 1
  23259343.852 1 122228678.844 1
 19 11  9 18  5 24.9990053  0 16R 9G15G 5G24R20R19G 2G31G25R21G12R 5
                                R16G20G29G21
  19110568.194 1 102049361.155 1
  24859253.559 9                
  22151307.760 1 116405924.078 1
  22322215.925 1 117304030.200 1
  20814234.804 1 111303159.305 1
  22647423.737 2 121148433.127 1
  23381226.852 1 122869110.716 1
  24674087.379 1 129663247.476 1
  21058929.330 1 110665454.695 1
  22816285.643 1 122094461.120 1
  20682515.569 1 108687355.503 1
  23223458.923 1 124142760.881 1
  20995884.949 1 112156104.672 1
  24955454.550 1 131141817.087 1
  22210018.319 1 116714451.624 1
  23258803.802 1 122225840.818 1
 19 11  9 18  5 25.9990053  0 16R 9G15G 5G24R20R19G 2G31G25R21G12R 5
                                R16G20G29G21
  19110425.172 1 102048598.553 1
  24859215.971 9                
  22151322.872 1 116406004.044 1
  22322779.393 1 117306991.838 1
  20814429.654 1 111304202.822 1
  22647914.437 2 121151058.813 1
  23381868.287 1 122872480.936 1
  24673563.768 1 129660493.395 1
  21058499.566 1 110663194.720 1
  22816039.315 1 122093142.752 1
  20682531.693 1 108687439.114 1
  23222988.466 1 124140246.140 1
  20996553.746 1 112159676.416 1
  24954813.848 2 131138450.482 1
  22209959.757 1 116714141.740 1
  23258263.613 1 122223003.175 1
 19 11  9 18  5 26.9990053  0 16R 9G15G 5G24R20R19G 2G31G25R21G12R 5
                                R16G20G29G21
  19110282.255 1 102047836.831 1
  24859181.001 9                
  22151338.228 1 116406084.525 1
  22323342.965 1 117309953.630 1
  20814624.677 1 111305246.564 1
  22648405.137 2 121153684.310 1
  23382509.687 1 122875851.221 1
  24673040.191 1 129657739.702 1
  21058069.906 1 110660935.001 1
  22815792.709 1 122091824.800 1
  20682547.363 1 108687523.218 1
  23222517.624 1 124137731.360 1
  20997222.857 1 112163248.646 1
  24954173.250 1 131135083.730 1
  22209901.159 1 116713831.844 1
  23257723.878 1 122220165.830 1
 19 11  9 18  5 27.9990053  0 16R 9G15G 5G24R20R19G 2G31G25R21G12R 5
                                R16G20G29G21
  19110139.442 1 102047075.963 1
  24859144.146 9                
  22151353.654 1 116406165.510 1
  22323906.747 1 117312915.541 1
  20814819.561 1 111306290.544 1
  22648896.011 2 121156309.610 1
  23383151.157 1 122879221.540 1
  24672516.685 1 129654986.390 1
  21057640.073 1 110658675.536 1
  22815546.486 1 122090507.192 1
  20682564.255 1 108687607.771 1
  23222046.608 1 124135216.488 1
  20997892.143 1 112166821.327 1
  24953532.443 1 131131716.782 1
  22209842.526 1 116713521.893 1
  23257183.934 1 122217328.763 1
 19 11  9 18  5 28.9990053  0 15R 9G 5G24R20R19G 2G31G25R21G12R 5R16
                                G20G29G21
  19109997.188 1 102046315.978 1
  22151369.115 1 116406247.017 1
  22324470.424 1 117315877.571 1
  20815014.759 1 111307334.770 1
  22649386.712 2 121158934.743 1
  23383792.697 1 122882591.922 1
  24671993.143 1 129652233.435 1
  21057209.925 1 110656416.353 1
  22815300.333 1 122089189.956 1
  20682579.995 1 108687692.798 1
  23221575.696 1 124132701.558 1
  20998561.324 1 112170394.469 1
  24952891.741 1 131128349.704 1
  22209783.789 1 116713211.958 1
  23256644.198 1 122214491.996 1
 19 11  9 18  5 29.9990053  0 15R 9G 5G24R20R19G 2G31G25R21G12R 5R16
                                G20G29G21
  19109854.864 1 102045556.859 1
  22151384.541 1 116406329.066 1
  22325034.275 1 117318839.763 1
  20815209.923 1 111308379.261 1
  22649877.202 2 121161559.694 1
  23384434.132 1 122885962.387 1
  24671469.462 1 129649480.905 1
  21056780.021 1 110654157.453 1
  22815054.285 1 122087873.132 1
  20682597.026 1 108687778.330 1
  23221104.924 1 124130186.638 1
  20999230.784 1 112173968.110 1
  24952251.179 1 131124982.470 1
  22209725.051 1 116712902.019 1
  23256104.254 1 122211655.528 1
 19 11  9 18  5 30.9990053  0 15R 9G 5G24R20R19G 2G31G25R21G12R 5R16
                                G20G29G21
  19109713.238 1 102044798.633 1
  22151400.176 1 116406411.663 1
  22325598.161 1 117321802.111 1
  20815405.051 1 111309424.038 1
  22650368.077 2 121164184.559 1
  23385075.323 1 122889332.958 1
  24670945.607 1 129646728.786 1
  21056350.292 1 110651898.871 1
  22814808.098 1 122086556.801 1
  20682613.081 1 108687864.389 1
  23220634.361 1 124127671.720 1
  20999900.175 1 112177542.306 1
  24951610.267 2 131121615.098 1
  22209665.860 1 116712592.118 1
  23255564.623 1 122208819.403 1
 19 11  9 18  5 31.9990053  0 15R 9G 5G24R20R19G 2G31G25R21G12R 5R16
                                G20G29G21
  19109571.472 1 102044041.145 1
  22151416.056 1 116406494.669 1
  22326161.629 1 117324764.475 1
  20815600.214 1 111310468.918 1
  22650858.603 2 121166809.094 1
  23385716.619 1 122892703.454 1
  24670421.821 1 129643976.953 1
  21055920.284 1 110649640.440 1
  22814561.945 1 122085240.771 1
  20682629.972 1 108687950.785 1
  23220163.694 1 124125156.643 1
  21000569.321 1 112181116.837 1
  24950969.460 1 131118247.422 1
  22209606.529 1 116712282.065 1
  23255025.132 1 122205983.443 1
 19 11  9 18  5 32.9990053  0 15R 9G 5G24R20R19G 2G31G25R21G12R 5R16
                                G20G29G21
  19109429.916 1 102043284.572 1
  22151431.726 1 116406578.235 1
  22326725.480 1 117327727.025 1
  20815795.552 1 111311514.120 1
  22651349.687 2 121169433.486 1
  23386357.984 1 122896074.067 1
  24669898.105 1 129641225.544 1
  21055490.415 1 110647382.327 1
  22814315.827 1 122083925.165 1
  20682647.074 1 108688037.718 1
  23219693.166 1 124122641.527 1
  21001238.606 1 112184691.927 1
  24950328.549 1 131114879.645 1
  22209547.373 1 116711972.044 1
  23254485.572 1 122203147.831 1
 19 11  9 18  5 33.9990053  0 16R 9G15G 5G24R20R19G 2G31G25R21G12R 5
                                R16G20G29G21
  19109288.884 1 102042528.784 1
  24858928.985 9                
  22151448.095 1 116406662.266 1
  22327289.367 1 117330689.627 1
  20815991.308 1 111312559.451 1
  22651840.282 2 121172057.662 1
  23386999.175 1 122899444.655 1
  24669374.319 1 129638474.452 1
  21055060.791 1 110645124.420 1
  22814070.093 1 122082609.872 1
  20682663.616 1 108688125.057 1
  23219222.639 1 124120126.318 1
  21001908.346 1 112188267.407 1
  24949687.637 1 131111511.615 1
  22209488.461 1 116711661.943 1
  23253946.604 1 122200312.428 1
 19 11  9 18  5 34.9990053  0 16R 9G15G 5G24R20R19G 2G31G25R21G12R 5
                                R16G20G29G21
  19109147.676 1 102041773.844 1
  24858894.643 9                
  22151464.219 1 116406746.777 1
  22327853.044 1 117333652.308 1
  20816186.751 1 111313604.970 1
  22652330.459 2 121174681.561 1
  23387640.645 1 122902815.260 1
  24668851.057 1 129635723.716 1
  21054631.341 1 110642866.749 1
  22813824.185 1 122081294.907 1
  20682680.369 1 108688212.826 1
  23218751.902 1 124117611.020 1
  21002578.225 1 112191843.323 1
  24949046.411 1 131108143.408 1
  22209429.375 1 116711351.802 1
  23253407.183 1 122197477.285 1
 19 11  9 18  5 35.9990053  0 16R 9G15G 5G24R20R19G 2G31G25R21G12R 5
                                R16G20G29G21
  19109006.679 1 102041019.786 1
  24858860.894 9                
  22151480.657 1 116406831.881 1
  22328417.174 1 117336615.188 1
  20816382.193 1 111314650.802 1
  22652820.914 2 121177305.322 1
  23388282.115 1 122906185.989 1
  24668327.900 1 129632973.388 1
  21054201.786 1 110640609.398 1
  22813578.555 1 122079980.397 1
  20682696.911 1 108688301.125 1
  23218280.990 1 124115095.721 1
  21003248.138 1 112195419.785 1
  24948405.500 1 131104775.071 1
  22209369.974 1 116711041.682 1
  23252867.832 1 122194642.479 1
 19 11  9 18  5 36.9990053  0 16R 9G15G 5G24R20R19G 2G31G25R21G12R 5
                                R16G20G29G21
  19108865.297 1 102040266.550 1
  24858821.387 9                
  22151496.676 1 116406917.457 1
  22328980.921 1 117339578.174 1
  20816577.566 1 111315696.835 1
  22653311.335 2 121179928.896 1
  23388923.620 1 122909556.731 1
  24667804.777 1 129630223.439 1
  21053772.302 1 110638352.286 1
  22813333.066 1 122078666.285 1
  20682714.501 1 108688389.869 1
  23217810.009 1 124112580.366 1
  21003918.017 1 112198996.697 1
  24947764.099 1 131101406.567 1
  22209310.818 1 116710731.508 1
  23252328.445 1 122191807.952 1
 19 11  9 18  5 37.9990053  0 16R 9G15G 5G24R20R19G 2G31G25R21G12R 5
                                R16G20G29G21
  19108724.264 1 102039514.303 1
  24858780.937 9                
  22151513.079 1 116407003.661 1
  22329544.842 1 117342541.400 1
  20816773.218 1 111316743.198 1
  22653801.861 2 121182552.399 1
  23389565.264 1 122912927.634 1
  24667282.213 1 129627473.970 1
  21053342.922 1 110636095.545 1
  22813087.681 1 122077352.660 1
  20682731.079 1 108688479.186 1
  23217339.027 1 124110065.064 1
  21004588.071 1 112202574.215 1
  24947123.048 1 131098037.948 1
  22209251.522 1 116710421.425 1
  23251789.234 1 122188973.811 1
 19 11  9 18  5 38.9990053  0 16R 9G15G 5G24R20R19G 2G31G25R21G12R 5
                                R16G20G29G21
  19108583.476 1 102038762.887 1
  24858744.257 9                
  22151529.552 1 116407090.365 1
  22330108.938 1 117345504.761 1
  20816969.393 1 111317789.790 1
  22654292.107 2 121185175.685 1
  23390206.769 1 122916298.577 1
  24666759.648 1 129624724.884 1
  21052913.402 1 110633839.065 1
  22812842.261 1 122076039.383 1
  20682748.459 1 108688568.966 1
  23216868.639 1 124107549.695 1
  21005257.985 1 112206152.214 1
  24946481.997 1 131094669.170 1
  22209192.296 1 116710111.311 1
  23251249.987 1 122186139.936 1
 19 11  9 18  5 39.9990053  0 16R 9G15G 5G24R20R19G 2G31G25R21G12R 5
                                R16G20G29G21
  19108442.688 1 102038012.382 1
  24858709.984 9                
  22151546.235 1 116407177.619 1
  22330672.789 1 117348468.300 1
  20817165.324 1 111318836.680 1
  22654782.493 2 121187798.839 1
  23390848.274 1 122919669.626 1
  24666236.875 1 129621976.222 1
  21052484.371 1 110631582.903 1
  22812597.085 1 122074726.558 1
  20682765.177 1 108688659.278 1
  23216397.867 1 124105034.334 1
  21005928.038 1 112209730.718 1
  24945840.841 1 131091300.277 1
  22209133.000 1 116709801.237 1
  23250710.671 1 122183306.396 1
 19 11  9 18  5 40.9990053  0 16R 9G15G 5G24R20R19G 2G31G25R21G12R 5
                                R16G20G29G21
  19108302.144 1 102037262.743 1
  24858676.934 9                
  22151563.510 1 116407265.400 1
  22331236.536 1 117351431.929 1
  20817361.046 1 111319883.789 1
  22655272.705 2 121190421.801 1
  23391490.163 1 122923040.726 1
  24665714.031 1 129619227.928 1
  21052055.130 1 110629327.008 1
  22812351.770 1 122073414.119 1
  20682782.941 1 108688750.060 1
  23215927.095 1 124102518.885 1
  21006598.057 1 112213309.683 1
  24945199.755 1 131087931.223 1
  22209073.530 1 116709491.136 1
  23250171.808 1 122180473.169 1
 19 11  9 18  5 41.9990053  0 16R 9G15G 5G24R20R19G 2G31G25R21G12R 5
                                R16G20G29G21
  19108161.565 1 102036513.898 1
  24858640.777 9                
  22151580.018 1 116407353.631 1
  22331800.457 1 117354395.627 1
  20817556.942 1 111320931.088 1
  22655762.986 2 121193044.536 1
  23392131.563 1 122926411.821 1
  24665191.502 1 129616479.970 1
  21051626.029 1 110627071.319 1
  22812106.629 1 122072102.054 1
  20682799.903 1 108688841.265 1
  23215456.777 1 124100003.355 1
  21007268.110 1 112216889.056 1
  24944558.564 1 131084561.923 1
  22209014.443 1 116709180.979 1
  23249632.666 1 122177640.176 1
 19 11  9 18  5 42.9990053  0 16R 9G15G 5G24R20R19G 2G31G25R21G12R 5
                                R16G20G29G21
  19108021.090 1 102035765.844 1
  24858600.816 9                
  22151597.154 1 116407442.327 1
  22332364.344 1 117357359.394 1
  20817753.082 1 111321978.561 1
  22656253.233 2 121195667.038 1
  23392772.998 1 122929782.931 1
  24664669.043 1 129613732.319 1
  21051196.615 1 110624815.851 1
  22811861.419 1 122070790.325 1
  20682817.318 1 108688932.881 1
  23214986.075 1 124097487.718 1
  21007938.059 1 112220468.871 1
  24943917.443 1 131081192.397 1
  22208955.043 1 116708870.727 1
  23249093.838 1 122174807.411 1
 19 11  9 18  5 43.9990053  0 16R 9G15G 5G24R20R19G 2G31G25R21G12R 5
                                R16G20G29G21
  19107880.791 1 102035018.710 1
  24858560.576 9                
  22151614.081 1 116407531.582 1
  22332928.474 1 117360323.348 1
  20817949.083 1 111323026.309 1
  22656743.514 2 121198289.393 1
  23393414.119 1 122933154.125 1
  24664146.967 1 129610985.127 1
  21050767.583 1 110622560.693 1
  22811616.418 1 122069479.032 1
  20682835.082 1 108689025.015 1
  23214515.094 1 124094972.122 1
  21008608.252 1 112224049.197 1
  24943276.148 2 131077822.774 1
  22208895.677 1 116708560.497 1
  23248554.626 1 122171974.980 1
 19 11  9 18  5 44.9990053  0 16R 9G15G 5G24R20R19G 2G31G25R21G12R 5
                                R16G20G29G21
  19107740.421 1 102034272.487 1
  24858521.697 9                
  22151631.147 1 116407621.406 1
  22333492.396 1 117363287.495 1
  20818145.014 1 111324074.381 1
  22657233.691 2 121200911.649 1
  23394055.589 1 122936525.429 1
  24663624.333 1 129608238.357 1
  21050338.483 1 110620305.854 1
  22811371.382 1 122068168.152 1
  20682852.428 1 108689117.682 1
  23214044.775 1 124092456.538 1
  21009278.620 1 112227630.089 1
  24942634.817 2 131074452.985 1
  22208836.416 1 116708250.322 1
  23248015.729 1 122169142.889 1
 19 11  9 18  5 45.9990053  0 16R 9G15G 5G24R20R19G 2G31G25R21G12R 5
                                R16G20G29G21
  19107600.191 1 102033527.160 1
  24858482.329 9                
  22151648.283 1 116407711.788 1
  22334056.422 1 117366251.804 1
  20818341.678 1 111325122.722 1
  22657724.146 2 121203533.722 1
  23394697.199 1 122939896.819 1
  24663101.804 1 129605492.018 1
  21049909.417 1 110618051.334 1
  22811126.555 1 122066857.708 1
  20682870.122 1 108689210.858 1
  23213574.422 1 124089940.915 1
  21009948.917 1 112231211.510 1
  24941993.766 2 131071083.108 1
  22208777.330 1 116707940.169 1
  23247477.110 1 122166311.153 1
 19 11  9 18  5 46.9990053  0 16R 9G15G 5G24R20R19G 2G31G25R21G12R 5
                                R16G20G29G21
  19107460.345 1 102032782.671 1
  24858442.926 9                
  22151665.838 1 116407802.694 1
  22334620.482 1 117369216.244 1
  20818538.377 1 111326171.321 1
  22658214.812 2 121206155.641 1
  23395338.669 1 122943268.273 1
  24662579.344 1 129602746.053 1
  21049480.455 1 110615797.092 1
  22810881.694 1 122065547.709 1
  20682887.468 1 108689304.512 1
  23213104.278 1 124087425.236 1
  21010619.320 1 112234793.373 1
  24941352.366 2 131067713.076 1
  22208718.243 1 116707629.978 1
  23246938.178 1 122163479.700 1
 19 11  9 18  5 47.9990053  0 16R 9G15G 5G24R20R19G 2G31G25R21G12R 5
                                R16G20G29G21
  19107320.848 1 102032039.323 1
  24858400.383 9                
  22151683.323 1 116407894.334 1
  22335185.206 1 117372181.037 1
  20818735.076 1 111327220.352 1
  22658705.302 2 121208777.580 1
  23395979.859 1 122946640.013 1
  24662056.954 1 129600000.752 1
  21049051.285 1 110613543.332 1
  22810637.042 1 122064238.344 1
  20682905.651 1 108689398.863 1
  23212634.414 1 124084909.735 1
  21011289.722 1 112238375.938 1
  24940710.687 2 131064343.095 1
  22208659.262 1 116707320.018 1
  23246399.629 1 122160648.755 1
 19 11  9 18  5 48.9990053  0 16R 9G15G 5G24R20R19G 2G31G25R21G12R 5
                                R16G20G29G21
  19107181.525 1 102031296.625 1
  24858360.945 9                
  22151700.983 1 116407986.320 1
  22335749.477 1 117375145.771 1
  20818931.670 1 111328269.448 1
  22659195.793 2 121211399.161 1
  23396621.260 1 122950011.621 1
  24661534.425 1 129597255.615 1
  21048622.428 1 110611289.674 1
  22810392.529 1 122062929.176 1
  20682923.206 1 108689493.515 1
  23212164.096 1 124082394.025 1
  21011960.753 1 112241958.772 1
  24940069.356 1 131060972.757 1
  22208600.140 1 116707009.845 1
  23245861.046 1 122157817.930 1
 19 11  9 18  5 49.9990053  0 16R 9G15G 5G24R20R19G 2G31G25R21G12R 5
                                R16G20G29G21
  19107042.761 1 102030554.654 1
  24858320.112 9                
  22151718.573 1 116408078.689 1
  22336313.468 1 117378110.487 1
  20819128.299 1 111329318.647 1
  22659685.900 2 121214020.409 1
  23397262.695 1 122953383.154 1
  24661012.000 1 129594510.722 1
  21048193.746 1 110609036.143 1
  22810148.157 1 122061620.227 1
  20682941.389 1 108689588.493 1
  23211694.371 1 124079878.131 1
  21012631.609 1 112245541.960 1
  24939428.200 1 131057602.114 1
  22208540.984 1 116706699.529 1
  23245322.323 1 122154987.253 1
 19 11  9 18  5 50.9990053  0 16R 9G15G 5G24R20R19G 2G31G25R21G12R 5
                                R16G20G29G21
  19106904.172 1 102029813.301 1
  24858281.198 9                
  22151736.407 1 116408171.332 1
  22336877.459 1 117381075.092 1
  20819324.614 1 111330367.825 1
  22660176.216 2 121216641.240 1
  23397904.235 1 122956754.491 1
  24660489.925 1 129591765.961 1
  21047764.994 1 110606782.637 1
  22809903.400 1 122060311.439 1
  20682959.223 1 108689683.715 1
  23211223.948 1 124077361.948 1
  21013302.465 1 112249125.400 1
  24938786.835 2 131054231.062 1
  22208482.002 1 116706388.929 1
  23244783.669 1 122152156.624 1
 19 11  9 18  5 51.9990053  0 16R 9G15G 5G24R20R19G 2G31G25R21G12R 5
                                R16G20G29G21
  19106765.093 1 102029072.848 1
  24858240.818 9                
  22151754.485 1 116408264.574 1
  22337441.136 1 117384039.920 1
  20819521.208 1 111331417.300 1
  22660666.253 2 121219261.963 1
  23398545.914 1 122960125.972 1
  24659967.675 1 129589021.685 1
  21047336.103 1 110604529.492 1
  22809658.818 1 122059003.118 1
  20682978.139 1 108689779.486 1
  23210753.141 1 124074845.815 1
  21013973.775 1 112252709.413 1
  24938145.330 2 131050859.920 1
  22208422.951 1 116706078.412 1
  23244245.051 1 122149326.363 1
 19 11  9 18  5 52.9990053  0 16R 9G15G 5G24R20R19G 2G31G25R21G12R 5
                                R16G20G29G21
  19106626.853 1 102028333.553 1
  24858201.764 9                
  22151772.389 1 116408358.576 1
  22338005.057 1 117387005.103 1
  20819717.558 1 111332467.288 1
  22661156.395 2 121221882.760 1
  23399187.663 1 122963497.764 1
  24659445.529 1 129586278.055 1
  21046907.630 1 110602276.870 1
  22809414.829 1 122057695.461 1
  20682996.287 1 108689875.991 1
  23210283.067 1 124072329.881 1
  21014645.190 1 112256294.158 1
  24937504.035 1 131047488.883 1
  22208364.074 1 116705768.137 1
  23243706.712 1 122146496.649 1
 19 11  9 18  5 53.9990053  0 16R 9G15G 5G24R20R19G 2G31G25R21G12R 5
                                R16G20G29G21
  19106489.171 1 102027595.200 1
  24858164.072 9                
  22151790.468 1 116408453.210 1
  22338569.432 1 117389970.532 1
  20819913.733 1 111333517.596 1
  22661646.467 2 121224503.470 1
  23399829.692 1 122966869.702 1
  24658923.489 1 129583534.888 1
  21046478.878 1 110600024.619 1
  22809170.595 1 122056388.287 1
  20683014.959 1 108689973.077 1
  23209812.748 1 124069814.008 1
  21015316.465 1 112259879.476 1
  24936862.495 1 131044117.762 1
  22208305.301 1 116705457.931 1
  23243168.582 1 122143667.319 1
 19 11  9 18  5 54.9990053  0 16R 9G15G 5G24R20R19G 2G31G25R21G12R 5
                                R16G20G29G21
  19106351.104 1 102026857.610 1
  24858125.507 9                
  22151808.372 1 116408548.271 1
  22339133.737 1 117392935.995 1
  20820109.804 1 111334568.069 1
  22662136.329 2 121227123.883 1
  23400471.371 1 122970241.609 1
  24658401.134 1 129580792.052 1
  21046050.406 1 110597772.558 1
  22808926.153 1 122055081.444 1
  20683032.933 1 108690070.542 1
  23209342.221 1 124067297.996 1
  21015987.949 1 112263465.172 1
  24936220.676 2 131040746.393 1
  22208246.634 1 116705147.623 1
  23242630.208 1 122140838.198 1
 19 11  9 18  5 55.9990053  0 16R 9G15G 5G24R20R19G 2G31G25R21G12R 5
                                R16G20G29G21
  19106213.701 1 102026120.880 1
  24858089.280 9                
  22151826.974 1 116408643.851 1
  22339697.902 1 117395901.569 1
  20820305.805 1 111335618.762 1
  22662626.017 2 121229744.127 1
  23401112.806 1 122973613.560 1
  24657879.163 1 129578049.574 1
  21045622.038 1 110595520.750 1
  22808681.815 1 122053774.986 1
  20683052.163 1 108690168.477 1
  23208871.588 1 124064781.956 1
  21016659.399 1 112267051.357 1
  24935578.822 1 131037374.850 1
  22208188.071 1 116704837.289 1
  23242092.043 1 122138009.363 1
 19 11  9 18  5 56.9990053  0 16R 9G15G 5G24R20R19G 2G31G25R21G12R 5
                                R16G20G29G21
  19106076.543 1 102025384.941 1
  24858054.101 9                
  22151845.296 1 116408739.907 1
  22340262.208 1 117398867.236 1
  20820502.225 1 111336669.647 1
  22663115.670 2 121232364.155 1
  23401754.451 1 122976985.531 1
  24657357.227 1 129575307.430 1
  21045193.321 1 110593269.198 1
  22808437.372 1 122052468.851 1
  20683070.381 1 108690266.856 1
  23208400.921 1 124062265.844 1
  21017330.674 1 112270637.997 1
  24934937.317 1 131034003.117 1
  22208129.159 1 116704526.907 1
  23241553.739 1 122135180.795 1
 19 11  9 18  5 57.9990053  0 16R 9G15G 5G24R20R19G 2G31G25R21G12R 5
                                R16G20G29G21
  19105939.070 1 102024649.843 1
  24858018.537 9                
  22151863.898 1 116408836.435 1
  22340826.513 1 117401832.965 1
  20820698.574 1 111337720.740 1
  22663605.603 2 121234983.897 1
  23402396.060 1 122980357.506 1
  24656834.872 1 129572565.652 1
  21044764.953 1 110591017.863 1
  22808193.593 1 122051163.072 1
  20683089.611 1 108690365.661 1
  23207930.359 1 124059749.628 1
  21018001.914 1 112274225.031 1
  24934295.672 1 131030631.145 1
  22208070.631 1 116704216.467 1
  23241015.539 1 122132352.449 1
 19 11  9 18  5 58.9990053  0 16R 9G15G 5G24R20R19G 2G31G25R21G12R 5
                                R16G20G29G21
  19105801.876 1 102023915.512 1
  24857978.820 9                
  22151881.942 1 116408933.388 1
  22341391.202 1 117404798.748 1
  20820895.134 1 111338771.992 1
  22664095.012 2 121237603.440 1
  23403037.774 1 122983729.444 1
  24656313.285 1 129569824.155 1
  21044336.829 1 110588766.709 1
  22807949.743 1 122049857.585 1
  20683107.899 1 108690464.852 1
  23207459.552 1 124057233.262 1
  21018673.119 1 112277812.434 1
  24933653.958 1 131027258.930 1
  22208011.963 1 116703905.910 1
  23240477.409 1 122129524.309 1
 19 11  9 18  5 59.9990053  0 15R 9G 5G24R20R19G 2G31G25R21G12R 5R16
                                G20G29G21
  19105664.753 1 102023182.102 1
  22151900.439 1 116409030.911 1
  22341955.821 1 117407764.716 1
  20821092.042 1 111339823.514 1
  22664584.630 2 121240222.804 1
  23403679.559 1 122987101.504 1
  24655791.489 1 129567083.130 1
  21043908.252 1 110586515.877 1
  22807705.859 1 122048552.561 1
  20683127.478 1 108690564.584 1
  23206988.675 1 124054716.935 1
  21019344.464 1 112281400.425 1
  24933012.034 1 131023886.628 1
  22207953.435 1 116703595.397 1
  23239939.245 1 122126696.531 1
 19 11  9 18  6  0.9990053  0 15R 9G 5G24R20R19G 2G31G25R21G12R 5R16
                                G20G29G21
  19105527.733 1 102022449.619 1
  22151918.727 1 116409128.985 1
  22342520.126 1 117410730.842 1
  20821288.741 1 111340875.298 1
  22665074.108 2 121242842.025 1
  23404321.517 1 122990473.636 1
  24655270.460 1 129564342.518 1
  21043479.989 1 110584265.344 1
  22807461.870 1 122047247.985 1
  20683146.394 1 108690664.817 1
  23206517.624 1 124052200.565 1
  21020016.053 1 112284988.872 1
  24932370.320 1 131020514.163 1
  22207894.628 1 116703284.890 1
  23239401.080 1 122123869.055 1
 19 11  9 18  6  1.9990053  0 15R 9G 5G24R20R19G 2G31G25R21G12R 5R16
                                G20G29G21
  19105390.679 1 102021717.869 1
  22151937.294 1 116409227.475 1
  22343084.606 1 117413696.980 1
  20821485.230 1 111341927.218 1
  22665563.831 2 121245460.963 1
  23404963.546 1 122993845.717 1
  24654749.082 1 129561602.163 1
  21043051.586 1 110582014.994 1
  22807218.160 1 122045943.702 1
  20683166.078 1 108690765.417 1
  23206046.712 1 124049684.069 1
  21020687.677 1 112288577.736 1
  24931728.571 2 131017141.458 1
  22207835.786 1 116702974.257 1
  23238862.810 1 122121041.788 1
 19 11  9 18  6  2.9990053  0 15R 9G 5G24R20R19G 2G31G25R21G12R 5R16
                                G20G29G21
  19105254.603 1 102020986.890 1
  22151955.931 1 116409326.413 1
  22343648.876 1 117416663.153 1
  20821681.510 1 111342979.295 1
  22666053.135 2 121248079.670 1
  23405605.539 1 122997217.790 1
  24654227.565 1 129558862.121 1
  21042623.567 1 110579764.847 1
  22806974.625 1 122044639.728 1
  20683185.029 1 108690866.433 1
  23205576.045 1 124047167.458 1
  21021359.336 1 112292167.001 1
  24931086.577 1 131013768.519 1
  22207776.944 1 116702663.546 1
  23238324.611 1 122118214.729 1
 19 11  9 18  6  3.9990053  0 15R 9G 5G24R20R19G 2G31G25R21G12R 5R16
                                G20G29G21
  19105117.898 1 102020256.770 1
  22151975.196 1 116409425.839 1
  22344213.460 1 117419629.441 1
  20821878.244 1 111344031.588 1
  22666542.719 2 121250698.122 1
  23406247.498 1 123000589.866 1
  24653706.083 1 129556122.466 1
  21042195.129 1 110577514.937 1
  22806731.229 1 122043336.131 1
  20683204.887 1 108690967.880 1
  23205104.889 1 124044650.769 1
  21022031.239 1 112295756.698 1
  24930444.758 1 131010395.336 1
  22207717.718 1 116702352.777 1
  23237786.655 1 122115387.940 1
 19 11  9 18  6  4.9990053  0 15R 9G 5G24R20R19G 2G31G25R21G12R 5R16
                                G20G29G21
  19104981.891 1 102019527.711 1
  22151993.868 1 116409526.015 1
  22344777.905 1 117422596.078 1
  20822075.013 1 111345084.309 1
  22667032.127 2 121253316.671 1
  23406889.387 1 123003962.218 1
  24653184.915 1 129553383.385 1
  21041766.866 1 110575265.525 1
  22806487.869 1 122042033.134 1
  20683224.117 1 108691070.039 1
  23204634.187 1 124042134.248 1
  21022703.072 1 112299347.093 1
  24929802.870 1 131007022.239 1
  22207658.876 1 116702042.222 1
  23237249.049 1 122112561.653 1
 19 11  9 18  6  5.9990053  0 15R 9G 5G24R20R19G 2G31G25R21G12R 5R16
                                G20G29G21
  19104845.500 1 102018799.546 1
  22152012.923 1 116409626.728 1
  22345342.455 1 117425562.888 1
  20822272.445 1 111346137.331 1
  22667521.327 2 121255935.017 1
  23407531.345 1 123007334.681 1
  24652663.816 1 129550644.748 1
  21041338.882 1 110573016.418 1
  22806244.648 1 122040730.580 1
  20683243.941 1 108691172.711 1
  23204163.659 1 124039617.749 1
  21023374.801 1 112302938.036 1
  24929161.120 1 131003649.023 1
  22207599.615 1 116701731.677 1
  23236711.059 1 122109735.710 1
 19 11  9 18  6  6.9990053  0 15R 9G 5G24R20R19G 2G31G25R21G12R 5R16
                                G20G29G21
  19104708.830 1 102018072.130 1
  22152032.328 1 116409727.847 1
  22345906.899 1 117428529.691 1
  20822469.841 1 111347190.452 1
  22668010.945 2 121258553.071 1
  23408173.199 1 123010707.058 1
  24652142.648 1 129547906.369 1
  21040910.793 1 110570767.471 1
  22806001.217 1 122039428.271 1
  20683263.345 1 108691275.747 1
  23203693.167 1 124037101.070 1
  21024046.948 1 112306529.311 1
  24928519.197 1 131000275.492 1
  22207540.284 1 116701421.004 1
  23236173.139 1 122106909.918 1
 19 11  9 18  6  7.9990053  0 15R 9G 5G24R20R19G 2G31G25R21G12R 5R16
                                G20G29G21
  19104572.823 1 102017345.514 1
  22152051.383 1 116409829.438 1
  22346471.274 1 117431496.562 1
  20822667.064 1 111348243.762 1
  22668500.284 2 121261170.884 1
  23408814.878 1 123014079.440 1
  24651622.108 1 129545168.319 1
  21040483.053 1 110568518.748 1
  22805758.170 1 122038126.304 1
  20683283.239 1 108691379.207 1
  23203221.836 1 124034584.307 1
  21024719.480 1 112310121.010 1
  24927876.959 1 130996901.754 1
  22207480.953 1 116701110.245 1
  23235635.497 1 122104084.386 1
 19 11  9 18  6  8.9990053  0 15R 9G 5G24R20R19G 2G31G25R21G12R 5R16
                                G20G29G21
  19104437.234 1 102016619.855 1
  22152071.067 1 116409931.637 1
  22347035.754 1 117434463.645 1
  20822864.146 1 111349297.429 1
  22668989.274 2 121263788.634 1
  23409456.802 1 123017451.973 1
  24651101.428 1 129542430.742 1
  21040055.279 1 110566270.394 1
  22805514.740 1 122036824.814 1
  20683302.957 1 108691483.239 1
  23202750.227 1 124032067.608 1
  21025391.627 1 112313713.252 1
  24927234.930 1 130993527.950 1
  22207421.587 1 116700799.565 1
  23235097.996 1 122101259.223 1
 19 11  9 18  6  9.9990053  0 15R 9G 5G24R20R19G 2G31G25R21G12R 5R16
                                G20G29G21
  19104301.507 1 102015895.202 1
  22152090.297 1 116410034.515 1
  22347600.303 1 117437431.013 1
  20823061.334 1 111350351.448 1
  22669478.473 2 121266406.330 1
  23410098.133 1 123020824.710 1
  24650580.470 1 129539693.730 1
  21039627.644 1 110564022.472 1
  22805271.658 1 122035523.905 1
  20683322.886 1 108691587.918 1
  23202279.420 1 124029551.012 1
  21026064.124 1 112317306.111 1
  24926593.460 1 130990154.122 1
  22207362.187 1 116700489.040 1
  23234560.529 1 122098434.533 1
 19 11  9 18  6 10.9990053  0 15R 9G 5G24R20R19G 2G31G25R21G12R 5R16
                                G20G29G21
  19104165.814 1 102015171.382 1
  22152110.121 1 116410137.853 1
  22348165.062 1 117440398.431 1
  20823258.766 1 111351405.665 1
  22669967.673 2 121269023.814 1
  23410739.672 1 123024197.441 1
  24650059.441 1 129536957.044 1
  21039199.834 1 110561774.767 1
  22805028.751 1 122034223.345 1
  20683343.023 1 108691693.018 1
  23201808.718 1 124027034.281 1
  21026736.969 1 112320899.403 1
  24925951.327 1 130986780.091 1
  22207302.647 1 116700178.433 1
  23234023.062 1 122095610.064 1
 19 11  9 18  6 11.9990053  0 15R 9G 5G24R20R19G 2G31G25R21G12R 5R16
                                G20G29G21
  19104030.435 1 102014448.352 1
  22152130.293 1 116410241.659 1
  22348729.647 1 117443365.937 1
  20823456.093 1 111352460.060 1
  22670456.942 2 121271641.020 2
  23411381.247 1 123027570.178 1
  24649538.552 1 129534220.701 1
  21038771.885 1 110559527.271 1
  22804785.705 1 122032923.106 1
  20683362.707 1 108691798.539 1
  23201338.015 1 124024517.475 1
  21027409.919 1 112324493.134 1
  24925309.543 1 130983405.834 1
  22207243.107 1 116699867.756 1
  23233485.735 1 122092785.830 1
 19 11  9 18  6 12.9990053  0 15R 9G 5G24R20R19G 2G31G25R21G12R 5R16
                                G20G29G21
  19103895.475 1 102013726.268 1
  22152150.640 1 116410346.066 1
  22349294.266 1 117446333.653 1
  20823653.315 1 111353514.778 1
  22670946.072 2 121274258.136 1
  23412022.996 1 123030943.042 1
  24649017.733 1 129531484.819 1
  21038344.669 1 110557280.136 1
  22804542.728 1 122031623.322 1
  20683382.879 1 108691904.608 1
  23200867.139 1 124022000.700 1
  21028082.800 1 112328087.450 1
  24924667.619 1 130980031.500 1
  22207183.741 1 116699557.140 1
  23232948.269 1 122089961.980 1
 19 11  9 18  6 13.9990053  0 15R 9G 5G24R20R19G 2G31G25R21G12R 5R16
                                G20G29G21
  19103760.306 1 102013005.163 1
  22152170.638 1 116410451.068 1
  22349859.478 1 117449301.593 1
  20823850.747 1 111354569.776 1
  22671435.620 2 121276875.118 1
  23412664.396 1 123034316.064 1
  24648497.228 1 129528749.420 1
  21037917.138 1 110555033.366 1
  22804299.960 1 122030324.053 1
  20683402.598 1 108692011.241 1
  23200396.332 1 124019483.990 1
  21028755.436 1 112331682.312 1
  24924025.766 1 130976657.057 1
  22207124.340 1 116699246.596 1
  23232410.976 1 122087138.501 1
 19 11  9 18  6 14.9990053  0 16G15R 9G 5G24R20R19G 2G31G25R21G12R 5
                                R16G20G29G21
  24857349.775 9                
  19103625.555 1 102012284.773 1
  22152190.531 1 116410556.498 1
  22350424.098 1 117452269.566 1
  20824047.969 1 111355624.931 1
  22671924.750 2 121279491.849 1
  23413306.006 1 123037689.044 1
  24647976.758 1 129526014.315 1
  21037489.783 1 110552786.783 1
  22804057.158 1 122029025.113 1
  20683423.085 1 108692118.262 1
  23199926.083 1 124016967.190 1
  21029428.246 1 112335277.542 1
  24923383.772 1 130973282.406 1
  22207065.010 1 116698935.948 1
  23231873.545 1 122084315.233 1
 19 11  9 18  6 15.9990053  0 16G15R 9G 5G24R20R19G 2G31G25R21G12R 5
                                R16G20G29G21
  24857314.107 9 130626066.57234
  19103490.595 1 102011565.255 1
  22152210.739 1 116410662.449 1
  22350989.136 1 117455237.657 1
  20824245.227 1 111356680.308 1
  22672413.426 2 121282108.381 1
  23413947.336 1 123041062.046 1
  24647456.113 1 129523279.576 1
  21037062.043 1 110550540.445 1
  22803814.809 1 122027726.534 1
  20683442.734 1 108692225.750 1
  23199455.591 1 124014450.307 1
  21030101.301 1 112338873.206 1
  24922741.744 1 130969907.556 1
  22207005.435 1 116698625.254 1
  23231336.252 1 122081492.225 1
 19 11  9 18  6 16.9990053  0 16G15R 9G 5G24R20R19G 2G31G25R21G12R 5
                                R16G20G29G21
  24857273.483 8 130625859.15823
  19103355.775 1 102010846.664 1
  22152231.539 1 116410768.956 1
  22351554.627 1 117458205.919 1
  20824442.763 1 111357735.997 1
  22672902.276 2 121284724.771 1
  23414589.330 1 123044435.172 1
  24646935.189 1 129520545.273 1
  21036634.617 1 110548294.442 1
  22803572.391 1 122026428.372 1
  20683463.604 1 108692333.774 1
  23198984.853 1 124011933.444 1
  21030774.531 1 112342469.402 1
  24922099.750 1 130966532.593 1
  22206945.999 1 116698314.610 1
  23230799.204 1 122078669.576 1
 19 11  9 18  6 17.9990053  0 16G15R 9G 5G24R20R19G 2G31G25R21G12R 5
                                R16G20G29G21
  24857237.430 8 130625651.33522
  19103221.094 1 102010128.931 1
  22152251.468 1 116410875.987 1
  22352119.735 1 117461174.297 1
  20824640.334 1 111358791.900 1
  22673391.126 2 121287341.002 1
  23415231.638 1 123047808.338 1
  24646414.509 1 129517811.348 1
  21036207.401 1 110546048.707 1
  22803329.868 1 122025130.581 1
  20683483.672 1 108692442.260 1
  23198514.151 1 124009416.491 1
  21031447.795 1 112346066.051 1
  24921457.443 1 130963157.489 1
  22206886.285 1 116698003.930 1
  23230262.226 1 122075847.211 1
 19 11  9 18  6 18.9990053  0 16G15R 9G 5G24R20R19G 2G31G25R21G12R 5
                                R16G20G29G21
  24857199.982 8 130625443.44122
  19103087.181 1 102009412.168 1
  22152271.919 1 116410983.621 1
  22352684.773 1 117464142.894 1
  20824837.627 1 111359848.138 1
  22673880.047 2 121289957.140 1
  23415873.177 1 123051181.652 1
  24645894.004 1 129515077.941 1
  21035780.080 1 110543803.347 1
  22803087.799 1 122023833.291 1
  20683504.577 1 108692551.327 1
  23198043.589 1 124006899.600 1
  21032121.338 1 112349663.336 1
  24920814.960 1 130959782.276 1
  22206826.989 1 116697693.336 1
  23229725.144 1 122073025.226 1
 19 11  9 18  6 19.9990053  0 16G15R 9G 5G24R20R19G 2G31G25R21G12R 5
                                R16G20G29G21
  24857158.765 4 130625234.98822
  19102952.884 1 102008696.041 1
  22152292.266 1 116411091.580 1
  22353249.811 1 117467111.407 1
  20825035.198 1 111360904.380 1
  22674368.723 2 121292572.895 1
  23416515.136 1 123054554.814 1
  24645373.709 1 129512344.683 1
  21035352.829 1 110541558.047 1
  22802845.589 1 122022536.207 1
  20683524.820 1 108692660.660 1
  23197572.398 1 124004382.473 1
  21032795.231 1 112353260.899 1
  24920172.758 1 130956406.740 1
  22206767.763 1 116697382.516 1
  23229188.165 1 122070203.332 1
 19 11  9 18  6 20.9990053  0 16G15R 9G 5G24R20R19G 2G31G25R21G12R 5
                                R16G20G29G21
  24857116.640 4 130625026.28823
  19102819.006 1 102007980.793 1
  22152312.858 1 116411200.066 1
  22353814.500 1 117470080.067 1
  20825232.350 1 111361960.870 1
  22674857.189 2 121295188.487 1
  23417157.374 1 123057928.051 1
  24644853.099 2 129509611.857 1
  21034926.066 1 110539313.048 1
  22802603.695 1 122021239.505 1
  20683545.795 1 108692770.488 1
  23197101.312 1 124001865.360 1
  21033469.158 1 112356858.932 1
  24919530.345 1 130953031.026 1
  22206708.502 1 116697071.689 1
  23228651.013 1 122067381.741 1
 19 11  9 18  6 21.9990053  0 16G15R 9G 5G24R20R19G 2G31G25R21G12R 5
                                R16G20G29G21
  24857075.632 4 130624817.12822
  19102685.302 1 102007266.258 1
  22152333.484 1 116411308.954 1
  22354379.713 1 117473048.723 1
  20825429.608 1 111363017.460 1
  22675345.935 2 121297803.738 1
  23417799.123 1 123061301.200 1
  24644332.698 1 129506879.260 1
  21034498.327 1 110537068.182 1
  22802361.765 1 122019943.067 1
  20683566.630 1 108692880.668 1
  23196630.959 1 123999348.106 1
  21034142.876 1 112360457.309 1
  24918887.793 1 130949655.016 1
  22206649.625 1 116696760.729 1
  23228113.790 1 122064560.334 1
 19 11  9 18  6 22.9990053  0 16G15R 9G 5G24R20R19G 2G31G25R21G12R 5
                                R16G20G29G21
  24857036.718 8 130624607.74023
  19102551.738 1 102006552.604 1
  22152354.284 1 116411418.363 1
  22354944.646 1 117476017.525 1
  20825626.656 1 111364074.282 1
  22675834.995 2 121300418.794 1
  23418440.802 1 123064674.432 1
  24643812.228 1 129504147.075 1
  21034071.006 1 110534823.613 1
  22802120.044 1 122018647.068 1
  20683587.501 1 108692991.334 1
  23196160.396 1 123996830.797 1
  21034816.874 1 112364056.144 1
  24918245.486 1 130946278.871 1
  22206590.259 1 116696449.748 1
  23227577.057 1 122061739.210 1
 19 11  9 18  6 23.9990053  0 16G15R 9G 5G24R20R19G 2G31G25R21G12R 5
                                R16G20G29G21
  24856997.420 8 130624398.19323
  19102418.314 1 102005840.064 1
  22152375.399 1 116411528.510 1
  22355509.719 1 117478986.675 1
  20825824.436 1 111365131.594 1
  22676323.670 2 121303033.916 1
  23419082.901 1 123068047.918 1
  24643292.107 1 129501415.495 1
  21033643.824 1 110532579.545 1
  22801878.394 1 122017351.670 1
  20683609.244 1 108693102.704 1
  23195689.973 1 123994313.642 1
  21035490.592 1 112367655.683 1
  24917602.724 1 130942902.727 1
  22206531.068 1 116696138.997 1
  23227040.009 1 122058918.592 1
 19 11  9 18  6 24.9990053  0 16G15R 9G 5G24R20R19G 2G31G25R21G12R 5
                                R16G20G29G21
  24856957.075 4 130624188.42722
  19102284.925 1 102005128.349 1
  22152396.409 1 116411639.173 1
  22356074.618 1 117481955.942 1
  20826022.147 1 111366189.109 1
  22676812.207 2 121305648.812 1
  23419724.755 1 123071421.464 1
  24642772.265 1 129498684.297 1
  21033216.818 1 110530335.743 1
  22801636.638 1 122016056.678 1
  20683630.428 1 108693214.546 1
  23195219.411 1 123991796.404 1
  21036164.694 1 112371255.685 1
  24916960.591 2 130939526.456 1
  22206472.016 1 116695828.200 1
  23226503.519 1 122056098.282 1
 19 11  9 18  6 25.9990053  0 16G15R 9G 5G24R20R19G 2G31G25R21G12R 5
                                R16G20G29G21
  24856917.289 4 130623978.38523
  19102152.198 1 102004417.484 1
  22152417.245 1 116411750.311 1
  22356639.865 1 117484925.292 1
  20826219.893 1 111367246.855 1
  22677300.499 2 121308263.525 1
  23420366.399 1 123074795.042 1
  24642252.353 1 129495953.480 1
  21032789.915 1 110528092.184 1
  22801394.813 1 122014762.025 1
  20683652.171 1 108693326.826 1
  23194748.988 1 123989279.090 1
  21036838.761 1 112374856.136 1
  24916318.144 1 130936149.997 1
  22206413.174 1 116695517.362 1
  23225966.890 1 122053278.230 1
 19 11  9 18  6 26.9990053  0 16G15R 9G 5G24R20R19G 2G31G25R21G12R 5
                                R16G20G29G21
  24856873.314 8 130623767.92823
  19102019.472 1 102003707.488 1
  22152437.976 1 116411862.003 1
  22357205.182 1 117487894.772 1
  20826418.058 1 111368304.845 1
  22677789.140 2 121310878.035 1
  23421008.183 1 123078168.661 1
  24641732.546 2 129493223.038 1
  21032363.397 1 110525848.915 1
  22801152.674 1 122013467.783 1
  20683673.670 1 108693439.592 1
  23194278.530 1 123986761.772 1
  21037512.304 1 112378457.070 1
  24915675.418 1 130932773.370 1
  22206353.983 1 116695206.497 1
  23225430.331 1 122050458.488 1
 19 11  9 18  6 27.9990053  0 16G15R 9G 5G24R20R19G 2G31G25R21G12R 5
                                R16G20G29G21
  24856833.144 8 130623557.16223
  19101886.815 1 102002998.246 1
  22152459.125 1 116411974.126 1
  22357770.255 1 117490864.277 1
  20826615.699 1 111369363.017 1
  22678277.641 2 121313492.303 1
  23421650.002 1 123081542.236 1
  24641212.390 1 129490492.922 1
  21031936.705 1 110523605.832 1
  22800910.814 1 122012173.857 1
  20683695.169 1 108693552.764 1
  23193808.595 1 123984244.355 1
  21038186.580 1 112382058.378 1
  24915032.691 1 130929396.497 1
  22206294.757 1 116694895.530 1
  23224894.155 1 122047638.951 1
 19 11  9 18  6 28.9990053  0 16G15R 9G 5G24R20R19G 2G31G25R21G12R 5
                                R16G20G29G21
  24856790.600 8 130623346.10223
  19101754.473 1 102002289.951 1
  22152480.659 1 116412086.828 1
  22358335.642 1 117493833.981 1
  20826813.689 1 111370421.465 1
  22678766.073 2 121316106.432 1
  23422291.856 1 123084915.938 1
  24640692.827 2 129487763.219 1
  21031509.628 1 110521363.087 1
  22800668.640 1 122010880.389 1
  20683716.563 1 108693666.475 1
  23193337.998 1 123981727.004 1
  21038860.927 1 112385660.218 1
  24914390.069 1 130926019.553 1
  22206235.671 1 116694584.636 1
  23224357.736 1 122044819.774 1
 19 11  9 18  6 29.9990053  0 16G15R 9G 5G24R20R19G 2G31G25R21G12R 5
                                R16G20G29G21
  24856757.968 8 130623134.90222
  19101622.549 1 102001582.555 1
  22152502.088 1 116412200.110 1
  22358900.785 1 117496803.869 1
  20827011.505 1 111371480.218 1
  22679254.923 2 121318720.431 1
  23422933.919 1 123088289.756 1
  24640173.265 2 129485033.991 1
  21031083.005 1 110519120.691 1
  22800427.094 1 122009587.373 1
  20683738.375 1 108693780.712 1
  23192867.400 1 123979209.673 1
  21039535.133 1 112389262.587 1
  24913747.622 1 130922642.469 1
  22206176.794 1 116694273.774 1
  23223821.176 1 122042000.940 1
 19 11  9 18  6 30.9990053  0 16G15R 9G 5G24R20R19G 2G31G25R21G12R 5
                                R16G20G29G21
  24856717.763 4 130622923.12022
  19101490.730 1 102000875.801 1
  22152523.831 1 116412313.694 1
  22359465.998 1 117499773.655 1
  20827210.053 1 111372538.967 1
  22679743.390 2 121321334.069 1
  23423576.192 1 123091663.406 1
  24639653.632 1 129482304.927 1
  21030656.487 1 110516878.346 1
  22800185.688 1 122008294.549 1
  20683760.363 1 108693895.228 1
  23192396.594 1 123976692.057 1
  21040209.898 1 112392865.233 1
  24913104.896 1 130919265.002 1
  22206117.847 1 116693962.667 1
  23223284.861 1 122039182.182 1
 19 11  9 18  6 31.9990053  0 16G15R 9G 5G24R20R19G 2G31G25R21G12R 5
                                R16G20G29G21
  24856673.439 4 130622711.13822
  19101359.260 1 102000169.970 1
  22152545.783 1 116412427.851 1
  22360030.966 1 117502743.603 1
  20827408.253 1 111373597.967 1
  22680232.065 2 121323947.528 1
  23424218.186 1 123095037.145 1
  24639134.383 2 129479576.311 1
  21030230.003 1 110514636.329 1
  22799944.281 1 122007002.155 1
  20683782.071 1 108694010.263 1
  23191925.403 1 123974174.397 1
  21040884.559 1 112396468.404 1
  24912462.030 1 130915887.444 1
  22206058.795 1 116693651.601 1
  23222748.337 1 122036363.777 1
 19 11  9 18  6 32.9990053  0 16G15R 9G 5G24R20R19G 2G31G25R21G12R 5
                                R16G20G29G21
  24856631.664 8 130622498.84723
  19101227.441 1 101999465.028 1
  22152567.980 1 116412542.548 1
  22360596.109 1 117505713.705 1
  20827606.627 1 111374657.254 1
  22680720.811 2 121326560.833 1
  23424860.354 1 123098410.974 1
  24638615.274 1 129476848.115 1
  21029803.380 1 110512394.608 1
  22799702.770 1 122005710.155 1
  20683804.721 1 108694125.795 1
  23191454.038 1 123971656.739 1
  21041558.835 1 112400072.091 1
  24911819.129 1 130912509.732 1
  22206000.023 1 116693340.518 1
  23222211.813 1 122033545.674 1
 19 11  9 18  6 33.9990053  0 16G15R 9G 5G24R20R19G 2G31G25R21G12R 5
                                R16G20G29G21
  24856588.596 8 130622286.23422
  19101095.657 1 101998760.916 1
  22152589.653 1 116412657.718 1
  22361161.251 1 117508683.875 1
  20827804.547 1 111375716.724 1
  22681209.382 2 121329173.899 1
  23425502.626 1 123101784.783 1
  24638096.549 1 129474120.252 1
  21029376.792 1 110510153.114 1
  22799461.155 1 122004418.509 1
  20683826.534 1 108694241.763 1
  23190982.777 1 123969139.013 1
  21042234.089 1 112403676.206 1
  24911176.263 1 130909131.799 1
  22205941.285 1 116693029.383 1
  23221675.463 1 122030727.824 1
 19 11  9 18  6 34.9990053  0 16G15R 9G 5G24R20R19G 2G31G25R21G12R 5
                                R16G20G29G21
  24856549.403 4 130622073.40122
  19100963.664 1 101998057.794 1
  22152611.850 1 116412773.528 1
  22361726.359 1 117511654.330 1
  20828002.922 1 111376776.567 1
  22681697.919 2 121331786.892 1
  23426144.515 1 123105158.790 1
  24637577.859 1 129471392.881 1
  21028950.414 1 110507912.022 1
  22799219.923 1 122003127.401 1
  20683848.730 1 108694358.336 1
  23190511.481 1 123966621.373 1
  21042909.273 1 112407280.920 1
  24910533.467 1 130905753.845 1
  22205882.548 1 116692718.355 1
  23221139.322 1 122027910.394 1
 19 11  9 18  6 35.9990053  0 16G15R 9G 5G24R20R19G 2G31G25R21G12R 5
                                R16G20G29G21
  24856512.548 8 130621860.52223
  19100831.775 1 101997355.735 1
  22152634.325 1 116412890.053 1
  22362291.502 1 117514625.109 1
  20828201.645 1 111377836.794 1
  22682186.595 2 121334399.897 1
  23426786.788 1 123108533.035 1
  24637059.238 1 129468666.131 1
  21028524.140 1 110505671.399 1
  22798978.482 1 122001836.857 1
  20683871.381 1 108694475.583 1
  23190040.430 1 123964103.941 1
  21043584.212 1 112410886.275 1
  24909890.426 1 130902375.918 1
  22205823.636 1 116692407.496 1
  23220603.077 1 122025093.471 1
 19 11  9 18  6 36.9990053  0 16G15R 9G 5G24R20R19G 2G31G25R21G12R 5
                                R16G20G29G21
  24856475.833 8 130621646.86013
  19100699.851 1 101996654.543 1
  22152657.011 1 116413007.084 1
  22362857.064 1 117517595.986 1
  20828400.403 1 111378897.255 1
  22682675.061 2 121337012.730 1
  23427428.677 1 123111907.317 1
  24636540.792 1 129465939.729 1
  21028097.761 1 110503431.039 1
  22798737.634 1 122000546.680 1
  20683893.752 1 108694593.293 1
  23189569.205 1 123961586.419 1
  21044259.361 1 112414492.096 1
  24909247.804 1 130898997.814 1
  22205764.480 1 116692096.609 1
  23220067.076 1 122022276.793 1
 19 11  9 18  6 37.9990053  0 16G15R 9G 5G24R20R19G 2G31G25R21G12R 5
                                R16G20G29G21
  24856437.478 8 130621433.167 2
  19100568.172 1 101995953.911 1
  22152679.033 1 116413124.392 1
  22363422.486 1 117520566.734 1
  20828599.021 1 111379957.689 1
  22683163.458 2 121339625.120 1
  23428070.775 1 123115281.389 1
  24636021.858 1 129463213.490 1
  21027671.138 1 110501190.704 1
  22798496.716 1 121999256.656 1
  20683916.647 1 108694711.230 1
  23189098.119 1 123959068.595 1
  21044934.754 1 112418098.101 1
  24908605.113 1 130895619.282 1
  22205705.568 1 116691785.452 1
  23219530.901 1 122019460.182 1
 19 11  9 18  6 38.9990053  0 16G15R 9G 5G24R20R19G 2G31G25R21G12R 5
                                R16G20G29G21
  24856397.412 8 130621219.003 3
  19100436.667 1 101995254.045 1
  22152701.334 1 116413242.109 1
  22363987.593 1 117523537.487 1
  20828797.849 1 111381018.222 1
  22683651.401 2 121342237.182 1
  23428712.629 1 123118655.416 1
  24635503.133 2 129460487.503 1
  21027244.620 1 110498950.537 1
  22798255.624 1 121997966.921 1
  20683939.123 1 108694829.541 1
  23188627.137 1 123956550.586 1
  21045610.043 1 112421704.457 1
  24907962.282 1 130892240.484 1
  22205646.202 1 116691474.173 1
  23218995.005 1 122016643.757 1
 19 11  9 18  6 39.9990053  0 16G15R 9G 5G24R20R19G 2G31G25R21G12R 5
                                R16G20G29G21
  24856349.912 4 130621004.840 2
  19100305.791 1 101994555.339 1
  22152724.403 1 116413360.619 1
  22364552.876 1 117526508.630 1
  20828996.677 1 111382079.287 1
  22684139.832 2 121344849.368 1
  23429354.587 1 123122029.756 1
  24634984.268 2 129457762.192 1
  21026818.556 1 110496710.933 1
  22798014.985 1 121996677.860 1
  20683961.947 1 108694948.603 1
  23188156.121 1 123954032.876 1
  21046285.471 1 112425311.566 1
  24907319.416 1 130888861.805 1
  22205586.453 1 116691163.134 1
  23218459.213 1 122013827.885 1
 19 11  9 18  6 40.9990053  0 16G15R 9G 5G24R20R19G 2G31G25R21G12R 5
                                R16G20G29G21
  24856310.614 4 130620790.391 2
  19100174.530 1 101993857.445 1
  22152746.775 1 116413479.619 1
  22365118.437 1 117529479.847 1
  20829195.085 1 111383140.547 1
  22684628.229 2 121347461.283 1
  23429996.721 1 123125404.130 1
  24634465.438 1 129455037.245 1
  21026392.352 1 110494471.558 1
  22797774.347 1 121995389.152 1
  20683984.982 1 108695068.123 1
  23187684.790 1 123951515.094 1
  21046960.864 1 112428919.135 1
  24906676.340 1 130885482.919 1
  22205527.541 1 116690852.053 1
  23217923.387 1 122011012.295 1
 19 11  9 18  6 41.9990053  0 16G15R 9G 5G24R20R19G 2G31G25R21G12R 5
                                R16G20G29G21
  24856271.735 4 130620575.765 2
  19100043.619 1 101993160.585 1
  22152770.263 1 116413599.294 1
  22365684.313 1 117532451.360 1
  20829393.145 1 111384202.195 1
  22685116.591 2 121350073.206 1
  23430639.098 1 123128778.714 1
  24633946.922 1 129452312.870 1
  21025966.322 1 110492232.633 1
  22797533.848 1 121994100.969 1
  20684007.074 1 108695188.273 1
  23187213.390 1 123948997.431 1
  21047636.536 1 112432527.374 1
  24906033.474 1 130882104.034 1
  22205468.001 1 116690541.123 1
  23217387.456 1 122008197.157 1
 19 11  9 18  6 42.9990053  0 16G15R 9G 5G24R20R19G 2G31G25R21G12R 5
                                R16G20G29G21
  24856230.727 4 130620360.889 2
  19099913.161 1 101992464.645 1
  22152793.471 1 116413719.561 1
  22366250.119 1 117535423.041 1
  20829591.624 1 111385264.159 1
  22685604.813 2 121352684.984 1
  23431281.440 1 123132153.402 1
  24633428.511 2 129449588.891 1
  21025540.048 1 110489994.033 1
  22797293.419 1 121992813.266 1
  20684030.352 1 108695308.955 1
  23186742.549 1 123946479.798 1
  21048312.383 1 112436136.155 1
  24905390.643 1 130878725.057 1
  22205408.705 1 116690230.232 1
  23216851.594 1 122005382.376 1
 19 11  9 18  6 43.9990053  0 16G15R 9G 5G24R20R19G 2G31G25R21G12R 5
                                R16G20G29G21
  24856186.159 8 130620145.790 3
  19099782.494 1 101991769.515 1
  22152816.226 1 116413840.308 1
  22366815.401 1 117538394.823 1
  20829790.103 1 111386326.318 1
  22686092.791 2 121355296.580 1
  23431923.678 1 123135528.106 1
  24632910.309 2 129446865.315 1
  21025113.844 1 110487755.698 1
  22797052.850 1 121991525.917 1
  20684053.352 1 108695430.086 1
  23186271.253 1 123943962.099 1
  21048988.021 1 112439745.343 1
  24904747.358 1 130875345.859 1
  22205349.374 1 116689919.279 1
  23216316.012 1 122002567.847 1
 19 11  9 18  6 44.9990053  0 16G15R 9G 5G24R20R19G 2G31G25R21G12R 5
                                R16G20G29G21
  24856136.740 8 130619930.257 3
  19099652.315 1 101991075.131 1
  22152839.680 1 116413961.460 1
  22367381.033 1 117541366.597 1
  20829988.686 1 111387388.579 1
  22686580.943 2 121357907.844 1
  23432565.951 1 123138902.747 1
  24632392.108 1 129444142.001 1
  21024687.570 1 110485517.508 1
  22796811.898 1 121990238.897 1
  20684076.037 1 108695551.580 1
  23185799.958 1 123941444.210 1
  21049663.763 1 112443354.886 1
  24904104.283 1 130871966.418 1
  22205290.357 1 116689608.199 1
  23215780.116 1 121999753.512 1
 19 11  9 18  6 45.9990053  0 16G15R 9G 5G24R20R19G 2G31G25R21G12R 5
                                R16G20G29G21
  24856097.966 8 130619714.182 3
  19099522.171 1 101990381.487 1
  22152863.412 1 116414083.001 1
  22367946.455 1 117544338.380 1
  20830187.235 1 111388450.925 1
  22687069.061 2 121360518.776 1
  23433207.630 1 123142277.282 1
  24631873.941 2 129441418.950 1
  21024261.680 1 110483279.465 1
  22796571.224 1 121988952.100 1
  20684099.350 1 108695673.412 1
  23185328.662 1 123938926.162 1
  21050339.575 1 112446964.757 1
  24903460.824 1 130868586.637 1
  22205230.992 1 116689296.970 1
  23215244.604 1 121996939.320 1
 19 11  9 18  6 46.9990053  0 16G15R 9G 5G24R20R19G 2G31G25R21G12R 5
                                R16G20G29G21
  24856062.019 8 130619497.863 3
  19099392.132 1 101989688.646 1
  22152886.481 1 116414205.002 1
  22368511.702 1 117547310.207 1
  20830385.993 1 111389513.410 1
  22687557.074 2 121363129.469 1
  23433849.764 1 123145651.824 1
  24631355.844 1 129438696.214 1
  21023835.860 1 110481041.631 1
  22796330.621 1 121987665.612 1
  20684122.594 1 108695795.675 1
  23184857.541 1 123936408.031 1
  21051015.527 1 112450575.035 1
  24902817.713 1 130865206.669 1
  22205171.801 1 116688985.640 1
  23214709.406 1 121994125.347 1
 19 11  9 18  6 47.9990053  0 16G15R 9G 5G24R20R19G 2G31G25R21G12R 5
                                R16G20G29G21
  24856021.360 8 130619281.170 3
  19099262.372 1 101988996.687 1
  22152909.899 1 116414327.516 1
  22369077.019 1 117550282.164 1
  20830584.646 1 111390576.171 1
  22688045.156 2 121365739.993 1
  23434492.036 1 123149026.424 1
  24630837.503 2 129435973.880 1
  21023410.005 1 110478804.099 1
  22796090.331 1 121986379.543 1
  20684146.292 1 108695918.422 1
  23184386.525 1 123933889.845 1
  21051691.793 1 112454185.774 1
  24902174.359 1 130861826.532 1
  22205112.714 1 116688674.303 1
  23214173.963 1 121991311.697 1
 19 11  9 18  6 48.9990053  0 16G15R 9G 5G24R20R19G 2G31G25R21G12R 5
                                R16G20G29G21
  24855980.701 8 130619064.408 2
  19099132.333 1 101988305.733 1
  22152933.527 1 116414450.723 1
  22369642.371 1 117553254.390 1
  20830783.335 1 111391639.347 1
  22688533.134 2 121368350.467 1
  23435134.414 1 123152401.220 1
  24630319.510 2 129433252.113 1
  21022984.150 1 110476567.004 1
  22795850.530 1 121985094.009 1
  20684169.745 1 108696041.808 1
  23183915.125 1 123931371.810 1
  21052368.093 1 112457797.143 1
  24901531.109 1 130858446.402 1
  22205053.349 1 116688363.104 1
  23213638.660 1 121988498.489 1
 19 11  9 18  6 49.9990053  0 16G15R 9G 5G24R20R19G 2G31G25R21G12R 5
                                R16G20G29G21
  24855935.505 8                
  19099003.167 1 101987615.610 1
  22152956.945 1 116414574.423 1
  22370207.793 1 117556226.721 1
  20830982.092 1 111392702.678 1
  22689021.321 2 121370960.776 1
  23435776.686 1 123155776.051 1
  24629801.658 2 129430530.659 1
  21022558.539 1 110474330.154 1
  22795610.485 1 121983808.857 1
  20684193.233 1 108696165.651 1
  23183443.794 1 123928853.727 1
  21053044.254 1 112461408.956 1
  24900887.754 1 130855066.089 1
  22204993.843 1 116688051.870 1
  23213103.532 1 121985685.554 1
 19 11  9 18  6 50.9990053  0 16G15R 9G 5G24R20R19G 2G31G25R21G12R 5
                                R16G20G29G21
  24855896.660 8 130618618.47534
  19098874.105 1 101986926.370 1
  22152980.608 1 116414698.652 1
  22370773.250 1 117559199.179 1
  20831180.885 1 111393766.259 1
  22689509.404 2 121373570.863 1
  23436418.715 1 123159150.933 1
  24629283.351 2 129427809.659 1
  21022132.928 1 110472093.594 1
  22795370.091 1 121982524.118 1
  20684216.930 1 108696289.980 1
  23182972.324 1 123926335.592 1
  21053720.415 1 112465021.280 1
  24900244.225 1 130851685.611 1
  22204934.478 1 116687740.616 1
  23212568.683 1 121982872.928 1
 19 11  9 18  6 51.9990053  0 16G15R 9G 5G24R20R19G 2G31G25R21G12R 5
                                R16G20G29G21
  24855856.560 8 130618401.06423
  19098745.113 1 101986238.194 1
  22153003.921 1 116414823.571 1
  22371338.986 1 117562171.923 1
  20831379.923 1 111394830.277 1
  22689997.417 2 121376180.966 1
  23437060.638 1 123162526.043 1
  24628765.638 2 129425089.200 1
  21021707.387 1 110469857.491 1
  22795130.290 1 121981239.922 1
  20684240.697 1 108696414.967 1
  23182501.168 1 123923817.608 1
  21054396.716 1 112468634.259 1
  24899600.940 1 130848305.164 1
  22204875.147 1 116687429.537 1
  23212033.589 1 121980060.770 1
 19 11  9 18  6 52.9990053  0 16G15R 9G 5G24R20R19G 2G31G25R21G12R 5
                                R16G20G29G21
  24855808.886 8 130618183.30524
  19098616.714 1 101985550.958 1
  22153027.653 1 116414949.106 1
  22371904.687 1 117565144.903 1
  20831578.576 1 111395894.625 1
  22690485.604 2 121378790.972 1
  23437702.632 1 123165901.307 1
  24628248.379 2 129422369.276 1
  21021281.881 1 110467621.757 1
  22794890.000 1 121979956.186 1
  20684264.430 1 108696540.518 1
  23182029.524 1 123921299.671 1
  21055073.156 1 112472247.804 1
  24898957.655 1 130844924.646 1
  22204815.816 1 116687118.526 1
  23211498.670 1 121977249.002 1
 19 11  9 18  6 53.9990053  0 16G15R 9G 5G24R20R19G 2G31G25R21G12R 5
                                R16G20G29G21
  24855765.749 8 130617965.16024
  19098488.595 1 101984864.520 1
  22153051.490 1 116415075.084 1
  22372470.493 1 117568117.911 1
  20831777.020 1 111396959.113 1
  22690973.512 2 121381400.696 1
  23438344.870 1 123169276.530 1
  24627731.189 2 129419649.624 1
  21020856.514 1 110465386.221 1
  22794649.746 1 121978672.801 1
  20684288.860 1 108696666.470 1
  23181558.019 1 123918781.611 1
  21055749.806 1 112475861.704 1
  24898314.301 1 130841543.875 1
  22204756.695 1 116686807.403 1
  23210963.716 1 121974437.434 1
 19 11  9 18  6 54.9990053  0 16G15R 9G 5G24R20R19G 2G31G25R21G12R 5
                                R16G20G29G21
  24855726.381 8 130617746.66824
  19098360.266 1 101984178.755 1
  22153075.362 1 116415201.399 1
  22373036.194 1 117571090.843 1
  20831976.336 1 111398023.640 1
  22691461.246 2 121384010.038 1
  23438987.003 1 123172651.626 1
  24627213.756 2 129416930.194 1
  21020431.008 1 110463150.784 1
  22794409.561 1 121977389.628 1
  20684312.453 1 108696792.729 1
  23181086.305 1 123916263.347 1
  21056426.455 1 112479475.920 1
  24897671.016 1 130838162.773 1
  22204697.050 1 116686496.096 1
  23210428.728 1 121971625.996 1
 19 11  9 18  6 55.9990053  0 16G15R 9G 5G24R20R19G 2G31G25R21G12R 5
                                R16G20G29G21
  24855685.932 8 130617527.75523
  19098232.286 1 101983493.820 1
  22153099.478 1 116415328.200 1
  22373602.175 1 117574063.872 1
  20832175.408 1 111399088.367 1
  22691949.049 2 121386619.133 1
  23439629.241 1 123176026.749 1
  24626696.671 2 129414211.082 1
  21020005.642 1 110460915.593 1
  22794169.551 1 121976106.820 1
  20684337.197 1 108696919.422 1
  23180614.939 1 123913745.017 1
  21057103.035 1 112483090.576 1
  24897027.801 1 130834781.476 1
  22204637.824 1 116686184.723 1
  23209893.878 1 121968814.820 1
 19 11  9 18  6 56.9990053  0 16G15R 9G 5G24R20R19G 2G31G25R21G12R 5
                                R16G20G29G21
  24855646.599 8 130617308.60323
  19098104.097 1 101982809.788 1
  22153123.664 1 116415455.554 1
  22374167.911 1 117577037.040 1
  20832374.131 1 111400153.340 1
  22692437.062 4 121389228.127 2
  23440271.583 1 123179401.940 1
  24626179.377 1 129411492.403 1
  21019580.729 1 110458680.711 1
  22793929.610 1 121974824.400 1
  20684361.523 1 108697046.620 1
  23180143.853 1 123911226.679 1
  21057779.406 1 112486705.731 1
  24896384.132 1 130831400.006 1
  22204578.354 1 116685873.358 1
  23209358.785 1 121966003.944 1
 19 11  9 18  6 57.9990053  0 16G15R 9G 5G24R20R19G 2G31G25R21G12R 5
                                R16G20G29G21
  24855605.905 8 130617089.20423
  19097976.431 1 101982126.575 1
  22153148.060 1 116415583.393 1
  22374733.682 1 117580010.298 1
  20832572.715 1 111401218.516 1
  22692924.586 2 121391836.854 1
  23440913.751 1 123182777.126 1
  24625662.012 2 129408774.091 1
  21019155.502 1 110456446.052 1
  22793689.984 1 121973542.358 1
  20684385.674 1 108697174.269 1
  23179672.767 1 123908708.286 1
  21058456.265 1 112490321.329 1
  24895740.743 1 130828018.370 1
  22204519.128 1 116685561.936 1
  23208823.936 1 121963193.341 1
 19 11  9 18  6 58.9990053  0 16G15R 9G 5G24R20R19G 2G31G25R21G12R 5
                                R16G20G29G21
  24855562.733 4 130616869.45223
  19097849.114 1 101981444.256 1
  22153172.351 1 116415711.767 1
  22375299.732 1 117582983.712 1
  20832771.438 1 111402283.959 1
  22693412.040 2 121394445.437 1
  23441556.129 1 123186152.408 1
  24625145.102 2 129406056.227 1
  21018730.275 1 110454211.722 1
  22793450.357 1 121972260.702 1
  20684410.313 1 108697302.418 1
  23179201.960 1 123906189.882 1
  21059133.054 1 112493937.424 1
  24895097.213 1 130824636.613 1
  22204460.076 1 116685250.525 1
  23208289.366 1 121960383.062 1
 19 11  9 18  6 59.9990053  0 15R 9G 5G24R20R19G 2G31G25R21G12R 5R16
                                G20G29G21
  19097721.867 1 101980762.825 1
  22153196.257 1 116415840.734 1
  22375865.363 1 117585957.301 1
  20832970.475 1 111403349.648 1
  22693899.634 2 121397053.927 1
  23442198.471 1 123189527.776 1
  24624628.436 1 129403338.774 1
  21018305.362 1 110451977.707 1
  22793210.801 1 121970979.535 1
  20684434.918 1 108697431.101 1
  23178731.014 1 123903671.500 1
  21059809.459 1 112497554.021 1
  24894453.824 1 130821254.733 1
  22204400.641 1 116684939.146 1
  23207754.342 1 121957573.127 1
 19 11  9 18  7  0.9990053  0 15R 9G 5G24R20R19G 2G31G25R21G12R 5R16
                                G20G29G21
  19097594.481 1 101980082.310 1
  22153221.211 1 116415970.237 1
  22376431.274 1 117588931.023 1
  20833169.198 1 111404415.609 1
  22694387.263 2 121399662.169 1
  23442841.198 1 123192903.237 1
  24624111.770 2 129400621.750 1
  21017880.310 1 110449744.021 1
  22792970.895 1 121969698.780 1
  20684459.104 1 108697560.328 1
  23178260.137 1 123901153.130 1
  21060486.353 1 112501171.104 1
  24893810.399 1 130817872.706 1
  22204341.450 1 116684627.775 1
  23207219.947 1 121954763.518 1
 19 11  9 18  7  1.9990053  0 15R 9G 5G24R20R19G 2G31G25R21G12R 5R16
                                G20G29G21
  19097467.199 1 101979402.615 1
  22153246.200 1 116416100.217 1
  22376997.359 1 117591904.827 1
  20833368.549 1 111405481.757 1
  22694874.857 2 121402270.228 1
  23443483.540 1 123196278.686 1
  24623595.383 2 129397905.060 1
  21017455.048 1 110447510.544 1
  22792731.304 1 121968418.332 1
  20684483.918 1 108697689.982 1
  23177789.261 1 123898634.633 1
  21061163.422 1 112504788.598 1
  24893166.835 1 130814490.491 1
  22204282.363 1 116684316.347 1
  23206685.307 1 121951954.170 1
 19 11  9 18  7  2.9990053  0 15R 9G 5G24R20R19G 2G31G25R21G12R 5R16
                                G20G29G21
  19097339.917 1 101978723.574 1
  22153271.154 1 116416230.525 1
  22377563.165 1 117594878.544 1
  20833567.587 1 111406547.917 1
  22695362.626 2 121404877.893 1
  23444125.813 1 123199653.996 1
  24623078.892 1 129395188.557 1
  21017029.856 1 110445277.170 1
  22792491.747 1 121967138.081 1
  20684508.558 1 108697819.917 1
  23177318.663 1 123896115.913 1
  21061840.595 1 112508406.388 1
  24892523.271 1 130811107.899 1
  22204223.067 1 116684004.679 1
  23206150.562 1 121949144.894 1
 19 11  9 18  7  3.9990053  0 15R 9G 5G24R20R19G 2G31G25R21G12R 5R16
                                G20G29G21
  19097212.879 1 101978045.466 1
  22153296.596 1 116416361.429 1
  22378128.866 1 117597852.440 1
  20833766.694 1 111407614.362 1
  22695850.080 2 121407485.483 1
  23444768.295 1 123203029.389 1
  24622562.854 1 129392472.524 1
  21016604.839 1 110443044.121 1
  22792252.365 1 121965858.311 1
  20684532.849 1 108697950.383 1
  23176847.682 1 123893597.212 1
  21062517.733 1 112512024.710 1
  24891879.393 1 130807725.229 1
  22204163.771 1 116683693.061 1
  23205615.958 1 121946335.992 1
 19 11  9 18  7  4.9990053  0 16G15R 9G 5G24R20R19G 2G31G25R21G12R 5
                                R16G20G29G21
  24855317.732 9                
  19097085.876 1 101977368.175 1
  22153321.480 1 116416492.844 1
  22378694.742 1 117600826.426 1
  20833965.696 1 111408681.034 1
  22696337.360 2 121410092.791 1
  23445410.812 1 123206404.828 1
  24622046.816 1 129389756.840 1
  21016180.030 1 110440811.327 1
  22792013.297 1 121964578.940 1
  20684558.396 1 108698081.307 1
  23176376.875 1 123891078.455 1
  21063194.453 1 112515643.456 1
  24891235.655 1 130804342.353 1
  22204104.231 1 116683381.395 1
  23205081.388 1 121943527.342 1
 19 11  9 18  7  5.9990053  0 15R 9G 5G24R20R19G 2G31G25R21G12R 5R16
                                G20G29G21
  19096958.944 1 101976691.583 1
  22153346.120 1 116416624.591 1
  22379260.687 1 117603800.353 1
  20834164.803 1 111409747.769 1
  22696824.605 2 121412699.792 1
  23446053.085 1 123209780.128 1
  24621530.639 2 129387041.345 1
  21015754.769 1 110438578.642 1
  22791774.055 1 121963299.772 1
  20684583.420 1 108698212.533 1
  23175905.684 1 123888559.517 1
  21063871.835 1 112519262.497 1
  24890591.532 1 130800959.156 1
  22204044.970 1 116683069.556 1
  23204547.027 1 121940718.833 1
 19 11  9 18  7  6.9990053  0 15R 9G 5G24R20R19G 2G31G25R21G12R 5R16
                                G20G29G21
  19096832.395 1 101976015.784 1
  22153370.760 1 116416756.814 1
  22379826.493 1 117606774.343 1
  20834364.154 1 111410814.665 1
  22697311.641 2 121415306.510 1
  23446695.497 1 123213155.433 1
  24621014.566 1 129384326.228 1
  21015330.030 1 110436346.183 1
  22791534.917 1 121962020.899 1
  20684608.094 1 108698344.191 1
  23175434.528 1 123886040.456 1
  21064549.113 1 112522881.972 1
  24889947.794 1 130797575.732 1
  22203985.674 1 116682757.630 1
  23204012.876 1 121937910.553 1
 19 11  9 18  7  7.9990053  0 15R 9G 5G24R20R19G 2G31G25R21G12R 5R16
                                G20G29G21
  19096705.881 1 101975341.104 1
  22153396.376 1 116416889.807 1
  22380392.473 1 117609748.725 1
  20834563.819 1 111411882.054 1
  22697798.606 2 121417913.299 1
  23447338.084 1 123216531.039 1
  24620498.179 1 129381611.757 1
  21014905.257 1 110434114.247 1
  22791295.919 1 121960742.673 1
  20684633.571 1 108698476.571 1
  23174963.442 1 123883521.614 1
  21065226.496 1 112526502.161 1
  24889304.230 1 130794192.406 1
  22203926.518 1 116682445.932 1
  23203478.620 1 121935102.830 1
 19 11  9 18  7  8.9990053  0 15R 9G 5G24R20R19G 2G31G25R21G12R 5R16
                                G20G29G21
  19096579.646 1 101974667.264 1
  22153421.958 1 116417023.295 1
  22380958.279 1 117612723.216 1
  20834763.206 1 111412949.612 1
  22698285.398 2 121420519.869 1
  23447980.357 1 123219906.675 1
  24619981.827 1 129378897.655 1
  21014480.414 1 110431882.575 1
  22791057.095 1 121959464.779 1
  20684658.490 1 108698609.417 1
  23174492.600 1 123881002.731 1
  21065904.192 1 112530122.769 1
  24888660.352 1 130790808.896 1
  22203867.048 1 116682134.200 1
  23202944.713 1 121932295.365 1
 19 11  9 18  7  9.9990053  0 15R 9G 5G24R20R19G 2G31G25R21G12R 5R16
                                G20G29G21
  19096454.004 1 101973994.071 1
  22153447.855 1 116417157.058 1
  22381524.260 1 117615697.546 1
  20834963.046 1 111414017.176 1
  22698772.049 2 121423125.990 1
  23448622.908 1 123223282.090 1
  24619465.301 2 129376183.667 1
  21014055.676 1 110429650.920 1
  22790817.992 1 121958187.045 1
  20684683.688 1 108698742.480 1
  23174021.095 1 123878483.534 1
  21066581.749 1 112533743.582 1
  24888016.439 1 130787424.970 1
  22203807.578 1 116681822.181 1
  23202410.353 1 121929487.946 1
 19 11  9 18  7 10.9990053  0 15R 9G 5G24R20R19G 2G31G25R21G12R 5R16
                                G20G29G21
  19096328.328 1 101973321.797 1
  22153473.506 1 116417291.422 1
  22382089.926 1 117618672.120 1
  20835163.025 1 111415085.039 1
  22699259.155 2 121425732.006 1
  23449265.356 1 123226657.665 1
  24618949.053 2 129373470.182 1
  21013631.182 1 110427419.652 1
  22790579.203 1 121956909.817 1
  20684709.550 1 108698876.112 1
  23173550.498 1 123875964.412 1
  21067259.411 1 112537364.958 1
  24887372.909 1 130784040.999 1
  22203748.491 1 116681510.267 1
  23201876.446 1 121926680.921 1
 19 11  9 18  7 11.9990053  0 15R 9G 5G24R20R19G 2G31G25R21G12R 5R16
                                G20G29G21
  19096203.524 1 101972650.490 1
  22153499.193 1 116417426.422 1
  22382655.767 1 117621646.915 1
  20835363.249 1 111416153.252 1
  22699746.016 2 121428337.968 1
  23449907.698 1 123230033.359 1
  24618432.876 2 129370757.168 1
  21013206.653 1 110425188.751 1
  22790340.484 1 121955633.097 1
  20684735.236 1 108699010.332 1
  23173079.621 1 123873445.364 1
  21067937.143 1 112540986.894 1
  24886728.962 1 130780656.954 1
  22203688.986 1 116681198.417 1
  23201342.574 1 121923874.295 1
 19 11  9 18  7 12.9990053  0 15R 9G 5G24R20R19G 2G31G25R21G12R 5R16
                                G20G29G21
  19096078.301 1 101971979.956 1
  22153524.496 1 116417561.827 1
  22383221.782 1 117624621.708 1
  20835563.542 1 111417221.530 1
  22700232.912 2 121430943.604 1
  23450550.285 1 123233409.030 1
  24617916.768 1 129368044.490 1
  21012782.717 1 110422958.024 1
  22790101.416 1 121954356.638 1
  20684760.435 1 108699144.923 1
  23172608.814 1 123870926.161 1
  21068614.874 1 112544609.180 1
  24886085.118 1 130777272.624 1
  22203630.039 1 116680886.443 1
  23200808.527 1 121921067.854 1
 19 11  9 18  7 13.9990053  0 15R 9G 5G24R20R19G 2G31G25R21G12R 5R16
                                G20G29G21
  19095953.881 1 101971310.241 1
  22153550.671 1 116417697.715 1
  22383788.041 1 117627596.576 1
  20835763.766 1 111418290.032 1
  22700719.703 2 121433549.035 1
  23451192.453 1 123236784.684 1
  24617401.010 1 129365332.132 1
  21012358.223 1 110420727.561 1
  22789862.523 1 121953080.544 1
  20684786.505 1 108699279.956 1
  23172138.042 1 123868406.901 1
  21069292.536 1 112548231.884 1
  24885440.961 1 130773888.131 1
  22203570.604 1 116680574.429 1
  23200274.865 1 121918261.668 1
 19 11  9 18  7 14.9990053  0 15R 9G 5G24R20R19G 2G31G25R21G12R 5R16
                                G20G29G21
  19095829.356 1 101970641.420 1
  22153576.707 1 116417834.182 1
  22384353.708 1 117630571.619 1
  20835963.850 1 111419358.830 1
  22701206.739 2 121436154.318 1
  23451834.935 1 123240160.458 1
  24616884.483 1 129362620.239 1
  21011934.183 1 110418497.432 1
  22789624.013 1 121951804.889 1
  20684812.436 1 108699415.527 1
  23171666.747 1 123865887.684 1
  21069970.547 1 112551855.133 1
  24884796.664 1 130770503.495 1
  22203511.482 1 116680262.436 1
  23199740.923 1 121915455.837 1
 19 11  9 18  7 15.9990053  0 15R 9G 5G24R20R19G 2G31G25R21G12R 5R16
                                G20G29G21
  19095704.831 1 101969973.469 1
  22153602.568 1 116417971.111 1
  22384919.514 1 117633546.715 1
  20836164.144 1 111420427.782 1
  22701693.844 2 121438759.326 1
  23452477.243 1 123243536.214 1
  24616368.201 1 129359908.699 1
  21011509.933 1 110416267.517 1
  22789385.678 1 121950529.580 1
  20684838.472 1 108699551.523 1
  23171195.801 1 123863368.376 1
  21070648.732 1 112555478.821 1
  24884152.367 1 130767118.673 1
  22203451.768 1 116679950.368 1
  23199207.191 1 121912650.254 1
 19 11  9 18  7 16.9990053  0 15R 9G 5G24R20R19G 2G31G25R21G12R 5R16
                                G20G29G21
  19095580.307 1 101969306.288 1
  22153628.569 1 116418108.488 1
  22385486.297 1 117636521.845 1
  20836364.333 1 111421496.899 1
  22702180.600 2 121441364.097 1
  23453119.795 1 123246911.953 1
  24615852.198 1 129357197.461 1
  21011085.579 1 110414037.813 1
  22789147.343 1 121949254.576 1
  20684864.612 1 108699687.922 1
  23170724.470 1 123860848.969 1
  21071326.673 1 112559102.905 1
  24883508.419 1 130763733.609 1
  22203392.402 1 116679638.216 1
  23198673.109 1 121909844.880 1
 19 11  9 18  7 17.9990053  0 15R 9G 5G24R20R19G 2G31G25R21G12R 5R16
                                G20G29G21
  19095455.468 1 101968640.039 1
  22153654.570 1 116418246.472 1
  22386052.486 1 117639497.175 1
  20836564.557 1 111422566.343 1
  22702667.601 2 121443968.702 1
  23453762.312 1 123250287.795 1
  24615336.125 1 129354486.691 1
  21010661.364 1 110411808.466 1
  22788908.903 1 121947980.079 1
  20684890.788 1 108699824.884 1
  23170253.000 1 123858329.600 1
  21072005.137 1 112562727.520 1
  24882864.052 1 130760348.460 1
  22203332.792 1 116679326.112 1
  23198139.272 1 121907039.885 1
 19 11  9 18  7 18.9990053  0 15R 9G 5G24R20R19G 2G31G25R21G12R 5R16
                                G20G29G21
  19095330.768 1 101967974.738 1
  22153680.885 1 116418385.016 1
  22386618.851 1 117642472.679 1
  20836765.060 1 111423636.076 1
  22703154.113 2 121446573.237 1
  23454405.248 1 123253663.758 1
  24614820.436 1 129351776.385 1
  21010237.324 1 110409579.459 1
  22788670.638 1 121946705.982 1
  20684916.684 1 108699962.385 1
  23169781.809 1 123855810.261 1
  21072683.741 1 112566352.644 1
  24882219.651 1 130756963.207 1
  22203273.287 1 116679014.038 1
  23197605.714 1 121904235.243 1
 19 11  9 18  7 19.9990053  0 15R 9G 5G24R20R19G 2G31G25R21G12R 5R16
                                G20G29G21
  19095206.139 1 101967310.220 1
  22153706.990 1 116418524.008 1
  22387185.110 1 117645448.210 1
  20836965.493 1 111424705.921 1
  22703640.660 2 121449177.495 1
  23455047.660 1 123257039.685 1
  24614304.922 1 129349066.356 1
  21009813.528 1 110407350.646 1
  22788432.128 1 121945432.167 1
  20684942.371 1 108700100.270 1
  23169310.270 1 123853290.803 1
  21073362.241 1 112569978.120 1
  24881575.493 1 130753577.706 1
  22203213.712 1 116678701.866 1
  23197072.087 1 121901430.817 1
 19 11  9 18  7 20.9990053  0 15R 9G 5G24R20R19G 2G31G25R21G12R 5R16
                                G20G29G21
  19095081.754 1 101966646.647 1
  22153733.619 1 116418663.617 1
  22387751.335 1 117648423.956 1
  20837165.612 1 111425776.094 1
  22704126.858 2 121451781.652 1
  23455690.177 1 123260415.744 1
  24613790.001 1 129346356.822 1
  21009389.348 1 110405122.217 1
  22788194.177 1 121944158.859 1
  20684969.069 1 108700238.742 1
  23168839.428 1 123850771.443 1
  21074041.264 1 112573604.158 1
  24880931.196 1 130750192.163 1
  22203154.451 1 116678389.775 1
  23196538.703 1 121898626.785 1
 19 11  9 18  7 21.9990053  0 15R 9G 5G24R20R19G 2G31G25R21G12R 5R16
                                G20G29G21
  19094957.159 1 101965983.968 1
  22153760.109 1 116418803.765 1
  22388317.839 1 117651399.838 1
  20837366.290 1 111426846.515 1
  22704613.649 2 121454385.699 1
  23456332.519 1 123263791.878 1
  24613274.557 1 129343647.746 1
  21008965.343 1 110402894.077 1
  22787956.331 1 121942885.989 1
  20684995.629 1 108700377.716 1
  23168368.446 1 123848252.064 1
  21074720.252 1 112577230.737 1
  24880286.585 1 130746806.474 1
  22203094.980 1 116678077.684 1
  23196005.180 1 121895823.084 1
 19 11  9 18  7 22.9990053  0 15R 9G 5G24R20R19G 2G31G25R21G12R 5R16
                                G20G29G21
  19094833.053 1 101965322.224 1
  22153786.598 1 116418944.544 1
  22388884.098 1 117654375.935 1
  20837566.269 1 111427917.245 1
  22705100.161 2 121456989.551 1
  23456974.932 1 123267168.171 1
  24612758.833 1 129340939.155 1
  21008541.267 1 110400666.336 1
  22787718.380 1 121941613.660 1
  20685021.978 1 108700517.264 1
  23167897.116 1 123845732.703 1
  21075399.135 1 112580857.876 1
  24879642.079 1 130743420.740 1
  22203035.580 1 116677765.666 1
  23195471.657 1 121893019.769 1
 19 11  9 18  7 23.9990053  0 15R 9G 5G24R20R19G 2G31G25R21G12R 5R16
                                G20G29G21
  19094708.843 1 101964661.294 1
  22153813.297 1 116419085.807 1
  22389450.114 1 117657352.066 1
  20837766.912 1 111428988.163 1
  22705586.534 2 121459593.230 1
  23457617.484 1 123270544.428 1
  24612243.528 1 129338230.839 1
  21008117.716 1 110398438.814 1
  22787480.184 1 121940341.610 1
  20685049.061 1 108700657.235 1
  23167425.855 1 123843213.281 1
  21076078.646 1 112584485.447 1
  24878997.433 1 130740034.751 1
  22202976.354 1 116677453.586 1
  23194938.100 1 121890216.704 1
 19 11  9 18  7 24.9990053  0 15R 9G 5G24R20R19G 2G31G25R21G12R 5R16
                                G20G29G21
  19094584.876 1 101964001.140 1
  22153839.891 1 116419227.494 1
  22390016.408 1 117660328.235 1
  20837967.275 1 111430059.219 1
  22706073.220 2 121462196.607 1
  23458260.070 1 123273920.642 1
  24611728.363 1 129335522.846 1
  21007694.094 1 110396211.471 1
  22787242.093 1 121939069.801 1
  20685075.934 1 108700797.592 1
  23166954.211 1 123840693.721 1
  21076758.053 1 112588113.360 1
  24878353.101 1 130736648.526 1
  22202917.023 1 116677141.371 1
  23194404.821 1 121887413.819 1
 19 11  9 18  7 25.9990053  0 15R 9G 5G24R20R19G 2G31G25R21G12R 5R16
                                G20G29G21
  19094460.875 1 101963341.947 1
  22153866.834 1 116419369.794 1
  22390582.458 1 117663304.687 1
  20838167.604 1 111431130.633 1
  22706560.081 2 121464799.922 1
  23458902.553 1 123277297.036 1
  24611212.709 1 129332815.366 1
  21007270.333 1 110393984.530 1
  22787004.352 1 121937798.539 1
  20685102.075 1 108700938.548 1
  23166482.671 1 123838174.267 1
  21077437.425 1 112591741.843 1
  24877708.351 1 130733262.252 1
  22202857.867 1 116676829.274 1
  23193871.961 1 121884611.367 1
 19 11  9 18  7 26.9990053  0 15R 9G 5G24R20R19G 2G31G25R21G12R 5R16
                                G20G29G21
  19094337.293 1 101962683.705 1
  22153893.812 1 116419512.677 1
  22391148.892 1 117666281.296 1
  20838367.513 1 111432202.324 1
  22707046.803 2 121467403.072 1
  23459545.104 1 123280673.515 1
  24610697.334 1 129330108.371 1
  21006846.398 1 110391757.917 1
  22786766.470 1 121936527.721 1
  20685128.844 1 108701080.033 1
  23166011.271 1 123835654.821 1
  21078116.727 1 112595370.800 1
  24877064.054 1 130729875.899 1
  22202798.571 1 116676517.195 1
  23193338.682 1 121881809.249 1
 19 11  9 18  7 27.9990053  0 15R 9G 5G24R20R19G 2G31G25R21G12R 5R16
                                G20G29G21
  19094213.989 1 101962026.266 1
  22153921.139 1 116419656.003 1
  22391715.291 1 117669257.945 1
  20838567.702 1 111433274.153 1
  22707533.350 2 121470005.983 1
  23460187.831 1 123284049.981 1
  24610181.750 1 129327401.679 1
  21006422.671 1 110389531.521 1
  22786528.763 1 121935257.233 1
  20685155.891 1 108701221.938 1
  23165539.731 1 123833135.323 1
  21078796.273 1 112599000.171 1
  24876419.547 1 130726489.306 1
  22202739.101 1 116676205.053 1
  23192805.439 1 121879007.375 1
 19 11  9 18  7 28.9990053  0 15R 9G 5G24R20R19G 2G31G25R21G12R 5R16
                                G20G29G21
  19094090.965 1 101961369.837 1
  22153948.257 1 116419800.000 1
  22392281.586 1 117672234.887 1
  20838767.891 1 111434346.337 1
  22708019.792 2 121472608.844 1
  23460830.418 1 123287426.625 1
  24609666.689 1 129324695.516 1
  21005999.155 1 110387305.566 1
  22786291.196 1 121933987.281 1
  20685183.149 1 108701364.473 1
  23165068.157 1 123830615.923 1
  21079476.343 1 112602630.219 1
  24875775.495 1 130723102.687 1
  22202679.805 1 116675893.011 1
  23192272.230 1 121876205.936 1
 19 11  9 18  7 29.9990053  0 15R 9G 5G24R20R19G 2G31G25R21G12R 5R16
                                G20G29G21
  19093968.151 1 101960714.112 1
  22153975.479 1 116419944.371 1
  22392847.985 1 117675211.799 1
  20838968.185 1 111435418.589 1
  22708506.723 2 121475211.367 1
  23461473.004 1 123290803.172 1
  24609152.082 1 129321989.614 1
  21005575.742 1 110385079.738 1
  22786054.152 1 121932717.602 1
  20685209.813 1 108701507.343 1
  23164596.023 1 123828096.323 1
  21080156.099 1 112606260.578 1
  24875131.233 1 130719715.773 1
  22202620.439 1 116675580.808 1
  23191739.091 1 121873404.643 1
 19 11  9 18  7 30.9990053  0 15R 9G 5G24R20R19G 2G31G25R21G12R 5R16
                                G20G29G21
  19093845.929 1 101960059.363 1
  22154003.679 1 116420089.329 1
  22393414.000 1 117678188.895 1
  20839167.990 1 111436491.181 1
  22708993.270 2 121477813.797 1
  23462115.452 1 123294179.865 1
  24608636.359 1 129319284.165 1
  21005152.470 1 110382854.255 1
  22785817.283 1 121931448.361 1
  20685237.209 1 108701650.779 1
  23164124.030 1 123825576.769 1
  21080835.576 1 112609891.452 1
  24874486.691 1 130716328.789 1
  22202561.004 1 116675268.677 1
  23191206.056 1 121870603.714 1
 19 11  9 18  7 31.9990053  0 15R 9G 5G24R20R19G 2G31G25R21G12R 5R16
                                G20G29G21
  19093723.254 1 101959405.394 1
  22154031.495 1 116420234.757 1
  22393980.644 1 117681166.050 1
  20839368.423 1 111437563.938 1
  22709479.922 2 121480415.939 1
  23462757.759 1 123297556.529 1
  24608120.809 1 129316579.053 1
  21004729.337 1 110380629.006 1
  22785580.379 1 121930179.442 1
  20685264.711 1 108701794.631 1
  23163651.792 1 123823057.132 1
  21081515.297 1 112613522.735 1
  24873842.046 1 130712941.555 1
  22202501.568 1 116674956.424 1
  23190673.371 1 121867803.028 1
 19 11  9 18  7 32.9990053  0 15R 9G 5G24R20R19G 2G31G25R21G12R 5R16
                                G20G29G21
  19093601.033 1 101958752.489 1
  22154059.205 1 116420380.905 1
  22394547.148 1 117684143.513 1
  20839568.682 1 111438637.124 1
  22709966.155 2 121483018.131 1
  23463400.451 1 123300933.436 1
  24607605.818 1 129313874.561 1
  21004306.100 1 110378404.251 1
  22785343.719 1 121928911.141 1
  20685291.794 1 108701939.169 1
  23163179.973 1 123820537.679 1
  21082195.087 1 112617154.641 1
  24873197.749 1 130709554.402 1
  22202442.168 1 116674644.388 1
  23190140.127 1 121865002.842 1
 19 11  9 18  7 33.9990053  0 15R 9G 5G24R20R19G 2G31G25R21G12R 5R16
                                G20G29G21
  19093479.231 1 101958100.451 1
  22154087.091 1 116420527.590 1
  22395113.652 1 117687121.081 1
  20839769.289 1 111439710.538 1
  22710452.422 2 121485620.113 1
  23464042.689 1 123304310.393 1
  24607090.548 1 129311170.444 1
  21003882.827 1 110376179.766 1
  22785106.885 1 121927643.235 1
  20685318.423 1 108702084.186 1
  23162708.608 1 123818018.189 1
  21082874.948 1 112620786.999 1
  24872553.487 1 130706167.071 1
  22202382.732 1 116674332.309 1
  23189607.267 1 121862202.954 1
 19 11  9 18  7 34.9990053  0 15R 9G 5G24R20R19G 2G31G25R21G12R 5R16
                                G20G29G21
  19093357.358 1 101957449.215 1
  22154114.941 1 116420674.733 1
  22395680.435 1 117690098.719 1
  20839969.653 1 111440784.129 1
  22710939.074 1 121488221.887 1
  23464685.136 1 123307687.340 1
  24606575.662 2 129308466.677 1
  21003459.450 1 110373955.534 1
  22784870.225 1 121926375.662 1
  20685346.448 1 108702229.638 1
  23162236.963 1 123815498.607 1
  21083555.227 1 112624419.811 1
  24871909.050 1 130702779.530 1
  22202322.983 1 116674020.169 1
  23189074.652 1 121859403.302 1
 19 11  9 18  7 35.9990053  0 15R 9G 5G24R20R19G 2G31G25R21G12R 5R16
                                G20G29G21
  19093236.009 1 101956798.926 1
  22154142.757 1 116420822.472 1
  22396246.589 1 117693076.518 1
  20840170.714 1 111441858.006 1
  22711425.167 1 121490823.545 1
  23465327.618 1 123311064.405 1
  24606060.811 1 129305763.331 1
  21003036.143 1 110371731.627 1
  22784633.774 1 121925108.520 1
  20685374.333 1 108702375.635 1
  23161765.738 1 123812979.037 1
  21084235.262 1 112628053.157 1
  24871264.334 1 130699391.909 1
  22202263.722 1 116673708.067 1
  23188541.897 1 121856604.014 1
 19 11  9 18  7 36.9990053  0 15R 9G 5G24R20R19G 2G31G25R21G12R 5R16
                                G20G29G21
  19093114.521 1 101956149.229 1
  22154170.992 1 116420970.472 1
  22396813.442 1 117696054.167 1
  20840371.392 1 111442931.806 1
  22711911.540 2 121493424.717 1
  23465970.310 1 123314441.250 1
  24605546.169 2 129303060.144 1
  21002612.940 1 110369507.752 1
  22784397.289 1 121923841.475 1
  20685401.974 1 108702521.832 1
  23161294.372 1 123810459.190 1
  21084915.192 1 112631686.748 1
  24870619.549 1 130696003.862 1
  22202204.112 1 116673395.690 1
  23188009.456 1 121853804.772 1
 19 11  9 18  7 37.9990053  0 15R 9G 5G24R20R19G 2G31G25R21G12R 5R16
                                G20G29G21
  19092993.207 1 101955500.517 1
  22154199.261 1 116421119.088 1
  22397380.051 1 117699032.055 1
  20840572.174 1 111444005.990 1
  22712398.052 2 121496025.781 1
  23466613.071 1 123317818.250 1
  24605031.458 2 129300357.454 1
  21002190.121 1 110367284.257 1
  22784161.048 1 121922574.964 1
  20685429.930 1 108702668.635 1
  23160823.077 1 123807939.422 1
  21085595.925 1 112635320.856 1
  24869975.042 1 130692615.744 1
  22202144.607 1 116673083.398 1
  23187476.770 1 121851005.924 1
 19 11  9 18  7 38.9990053  0 15R 9G 5G24R20R19G 2G31G25R21G12R 5R16
                                G20G29G21
  19092872.242 1 101954852.588 1
  22154227.495 1 116421268.163 1
  22397946.869 1 117702009.968 1
  20840773.340 1 111445080.266 1
  22712884.599 2 121498626.601 1
  23467255.378 1 123321195.215 1
  24604516.816 2 129297655.051 1
  21001766.849 1 110365060.971 1
  22783924.633 1 121921308.782 1
  20685458.478 1 108702815.838 1
  23160351.816 1 123805419.563 1
  21086276.554 1 112638955.360 1
  24869330.152 1 130689227.417 1
  22202085.520 1 116672771.006 1
  23186944.050 1 121848207.300 1
 19 11  9 18  7 39.9990053  0 15R 9G 5G24R20R19G 2G31G25R21G12R 5R16
                                G20G29G21
  19092751.556 1 101954205.579 1
  22154255.800 1 116421417.820 1
  22398513.757 1 117704988.091 1
  20840974.541 1 111446154.888 1
  22713371.006 2 121501227.290 1
  23467897.826 1 123324572.292 1
  24604002.942 1 129294953.187 1
  21001343.611 1 110362838.040 1
  22783688.357 1 121920043.075 1
  20685486.468 1 108702963.592 1
  23159880.765 1 123802899.749 1
  21086957.356 1 112642590.361 1
  24868685.367 1 130685838.973 1
  22202026.504 1 116672458.655 1
  23186411.609 1 121845409.023 1
 19 11  9 18  7 40.9990053  0 15R 9G 5G24R20R19G 2G31G25R21G12R 5R16
                                G20G29G21
  19092630.871 1 101953559.278 1
  22154284.069 1 116421567.840 1
  22399080.784 1 117707966.167 1
  20841175.602 1 111447229.591 1
  22713857.518 1 121503827.646 1
  23468540.622 1 123327949.277 1
  24603489.103 2 129292251.507 1
  21000920.653 1 110360615.241 1
  22783451.697 1 121918777.569 1
  20685514.703 1 108703111.683 1
  23159409.121 1 123800379.721 1
  21087638.055 1 112646225.676 1
  24868040.581 1 130682450.231 1
  22201966.824 1 116672146.158 1
  23185879.063 1 121842610.906 1
 19 11  9 18  7 41.9990053  0 16R 9G 5G24R20R19G 2G31G25G15R21G12R 5
                                R16G20G29G21
  19092510.011 1 101952913.834 1
  22154312.443 1 116421718.351 1
  22399647.637 1 117710944.328 1
  20841376.384 1 111448304.447 1
  22714343.856 2 121506427.750 1
  23469182.964 1 123331326.259 1
  24602974.775 2 129289550.225 1
  21000497.659 1 110358392.687 1
  24853698.701 9                
  22783215.560 1 121917512.424 1
  20685542.763 1 108703260.220 1
  23158937.441 1 123797859.637 1
  21088319.311 1 112649861.466 1
  24867395.691 1 130679061.335 1
  22201906.690 1 116671833.582 1
  23185346.622 1 121839813.052 1
 19 11  9 18  7 42.9990053  0 16R 9G 5G24R20R19G 2G31G25G15R21G12R 5
                                R16G20G29G21
  19092389.395 1 101952269.362 1
  22154341.236 1 116421869.491 1
  22400214.490 1 117713922.712 1
  20841577.411 1 111449379.686 1
  22714830.193 1 121509027.794 1
  23469825.830 1 123334703.416 1
  24602460.482 2 129286849.430 1
  21000074.771 1 110356170.538 1
  24853663.312 9 130606881.82535
  22782979.494 1 121916247.776 1
  20685571.451 1 108703409.358 1
  23158466.076 1 123795339.658 1
  21089000.253 1 112653497.803 1
  24866750.731 1 130675672.366 1
  22201847.011 1 116671521.111 1
  23184814.356 1 121837015.615 1
 19 11  9 18  7 43.9990053  0 16R 9G 5G24R20R19G 2G31G25G15R21G12R 5
                                R16G20G29G21
  19092268.604 1 101951625.689 1
  22154370.308 1 116422021.090 1
  22400781.308 1 117716901.130 1
  20841779.066 1 111450455.044 1
  22715316.322 2 121511627.592 1
  23470468.382 1 123338080.542 1
  24601946.852 2 129284148.950 1
  20999651.568 1 110353948.597 1
  24853632.948 9 130606648.64323
  22782743.078 1 121914983.426 1
  20685599.999 1 108703558.906 1
  23157994.571 1 123792819.582 1
  21089681.266 1 112657134.538 1
  24866105.596 1 130672283.160 1
  22201787.854 1 116671208.538 1
  23184281.915 1 121834218.390 1
 19 11  9 18  7 44.9990053  0 16R 9G 5G24R20R19G 2G31G25G15R21G12R 5
                                R16G20G29G21
  19092147.988 1 101950982.766 1
  22154398.996 1 116422173.097 1
  22401348.370 1 117719879.561 1
  20841980.232 1 111451530.500 1
  22715802.310 1 121514227.059 1
  23471111.004 1 123341457.594 1
  24601433.118 1 129281448.771 1
  20999228.784 1 110351726.835 1
  24853575.467 8 130606415.18823
  22782506.733 1 121913719.393 1
  20685628.339 1 108703708.832 1
  23157523.136 1 123790299.376 1
  21090361.789 1 112660771.639 1
  24865460.497 1 130668893.727 1
  22201728.768 1 116670895.861 1
  23183749.474 1 121831421.359 1
 19 11  9 18  7 45.9990053  0 16R 9G 5G24R20R19G 2G31G25G15R21G12R 5
                                R16G20G29G21
  19092027.442 1 101950340.741 1
  22154427.894 1 116422325.663 1
  22401915.223 1 117722858.105 1
  20842181.398 1 111452606.209 1
  22716288.229 2 121516826.380 1
  23471753.591 1 123344834.730 1
  24600919.837 2 129278749.031 1
  20998805.651 1 110349505.385 1
  24853531.039 8 130606181.38224
  22782270.491 1 121912455.773 1
  20685656.538 1 108703859.269 1
  23157051.701 1 123787779.184 1
  21091042.801 1 112664409.217 1
  24864815.292 1 130665504.130 1
  22201669.926 1 116670583.159 1
  23183217.137 1 121828624.655 1
 19 11  9 18  7 46.9990053  0 16R 9G 5G24R20R19G 2G31G25G15R21G12R 5
                                R16G20G29G21
  19091907.071 1 101949699.522 1
  22154456.966 1 116422478.680 1
  22402482.111 1 117725836.706 1
  20842382.773 1 111453682.057 1
  22716774.148 1 121519425.451 1
  23472396.352 1 123348211.841 1
  24600406.487 2 129276049.606 1
  20998382.763 1 110347284.179 1
  24853490.275 8 130605947.19823
  22782034.565 1 121911192.454 1
  20685685.471 1 108704010.137 1
  23156579.917 1 123785258.894 1
  21091723.569 1 112668047.205 1
  24864170.332 1 130662114.326 1
  22201610.490 1 116670270.406 1
  23182684.696 1 121825828.190 1
 19 11  9 18  7 47.9990053  0 16R 9G 5G24R20R19G 2G31G25G15R21G12R 5
                                R16G20G29G21
  19091786.525 1 101949059.126 1
  22154486.143 1 116422632.178 1
  22403048.789 1 117728815.387 1
  20842584.393 1 111454758.099 1
  22717260.276 2 121522024.317 1
  23473039.358 1 123351588.953 1
  24599892.334 2 129273350.530 1
  20997959.979 1 110345063.173 1
  24853442.846 8 130605712.73923
  22781798.323 1 121909929.504 1
  20685714.578 1 108704161.438 1
  23156108.517 1 123782738.508 1
  21092404.547 1 112671685.645 1
  24863525.686 1 130658724.319 1
  22201551.090 1 116669957.569 1
  23182152.569 1 121823031.974 1
 19 11  9 18  7 48.9990053  0 16R 9G 5G24R20R19G 2G31G25G15R21G12R 5
                                R16G20G29G21
  19091666.851 1 101948419.658 1
  22154515.633 1 116422786.244 1
  22403615.747 1 117731794.236 1
  20842785.908 1 111455834.400 1
  22717746.404 1 121524622.983 1
  23473682.014 1 123354966.160 1
  24599378.774 2 129270651.887 1
  20997537.020 1 110342842.514 1
  24853400.197 8 130605478.03923
  22781562.292 1 121908666.971 1
  20685743.196 1 108704313.256 1
  23155637.012 1 123780218.130 1
  21093085.768 1 112675324.554 1
  24862880.656 1 130655334.187 1
  22201491.934 1 116669644.759 1
  23181620.512 1 121820236.095 1
 19 11  9 18  7 49.9990053  0 16R 9G 5G24R20R19G 2G31G25G15R21G12R 5
                                R16G20G29G21
  19091546.933 1 101947780.901 1
  22154545.159 1 116422940.723 1
  22404183.018 1 117734773.094 1
  20842987.423 1 111456910.857 1
  22718232.218 1 121527221.383 1
  23474324.497 1 123358343.291 1
  24598865.144 2 129267953.563 1
  20997114.551 1 110340622.048 1
  24853351.895 8 130605242.88822
  22781326.574 1 121907404.743 1
  20685771.989 1 108704465.457 1
  23155165.437 1 123777697.645 1
  21093767.060 1 112678963.795 1
  24862235.417 1 130651943.806 1
  22201432.673 1 116669331.827 1
  23181088.525 1 121817440.410 1
 19 11  9 18  7 50.9990053  0 16R 9G 5G24R20R19G 2G31G25G15R21G12R 5
                                R16G20G29G21
  19091427.364 1 101947143.064 1
  22154574.825 1 116423095.776 1
  22404750.185 1 117737752.100 1
  20843188.694 1 111457987.531 1
  22718718.346 1 121529819.605 1
  23474967.014 1 123361720.497 1
  24598351.759 2 129265255.615 1
  20996691.732 1 110338401.867 1
  24853301.255 8 130605007.52223
  22781091.415 1 121906142.940 1
  20685801.270 1 108704618.160 1
  23154694.002 1 123775177.166 1
  21094448.491 1 112682603.532 1
  24861590.143 1 130648553.282 1
  22201373.482 1 116669018.898 1
  23180556.398 1 121814645.051 1
 19 11  9 18  7 51.9990053  0 16R 9G 5G24R20R19G 2G31G25G15R21G12R 5
                                R16G20G29G21
  19091308.005 1 101946506.120 1
  22154604.560 1 116423251.368 1
  22405317.213 1 117740731.253 1
  20843389.860 1 111459064.495 1
  22719204.230 2 121532417.656 1
  23475609.600 1 123365097.775 1
  24597838.373 2 129262558.126 1
  20996269.402 1 110336182.010 1
  24853265.237 4 130604771.84322
  22780855.907 1 121904881.531 1
  20685830.761 1 108704771.376 1
  23154222.742 1 123772656.670 1
  21095130.096 1 112686243.757 1
  24860945.113 1 130645162.635 1
  22201314.046 1 116668705.986 1
  23180024.131 1 121811850.007 1
 19 11  9 18  7 52.9990053  0 16R 9G 5G24R20R19G 2G31G25G15R21G12R 5
                                R16G20G29G21
  19091188.889 1 101945870.049 1
  22154634.609 1 116423407.505 1
  22405884.345 1 117743710.534 1
  20843591.061 1 111460141.680 1
  22719690.184 1 121535015.538 1
  23476252.152 1 123368475.105 1
  24597325.372 2 129259861.006 1
  20995847.072 1 110333962.450 1
  24853217.738 8 130604535.91723
  22780620.399 1 121903620.504 1
  20685859.763 1 108704925.076 1
  23153751.725 1 123770136.180 1
  21095811.946 1 112689884.454 1
  24860299.874 1 130641771.828 1
  22201254.366 1 116668393.080 1
  23179492.493 1 121809055.255 1
 19 11  9 18  7 53.9990053  0 16R 9G 5G24R20R19G 2G31G25G15R21G12R 5
                                R16G20G29G21
  19091070.263 1 101945234.828 1
  22154664.693 1 116423564.117 1
  22406451.547 1 117746689.893 1
  20843792.577 1 111461219.040 1
  22720176.033 2 121537613.202 1
  23476894.774 1 123371852.442 1
  24596812.649 2 129257164.301 1
  20995425.021 1 110331743.130 1
  24853171.285 8 130604299.71123
  22780384.891 1 121902359.837 1
  20685888.835 1 108705079.232 1
  23153280.569 1 123767615.636 1
  21096493.866 1 112693525.602 1
  24859654.565 1 130638380.836 1
  22201194.547 1 116668080.114 1
  23178960.645 1 121806260.800 1
 19 11  9 18  7 54.9990053  0 16R 9G 5G24R20R19G 2G31G25G15R21G12R 5
                                R16G20G29G21
  19090951.671 1 101944600.357 1
  22154694.742 1 116423721.156 1
  22407018.574 1 117749669.266 1
  20843993.882 1 111462296.562 1
  22720661.812 2 121540210.586 1
  23477537.710 1 123375229.726 1
  24596300.171 1 129254467.816 1
  20995002.586 1 110329523.980 1
  24853131.638 8 130604063.02922
  22780149.068 1 121901099.474 1
  20685918.152 1 108705233.764 1
  23152809.239 1 123765094.941 1
  21097175.611 1 112697167.088 1
  24859009.326 1 130634989.588 1
  22201134.588 1 116667767.008 1
  23178428.832 1 121803466.506 1
 19 11  9 18  7 55.9990053  0 16R 9G 5G24R20R19G 2G31G25G15R21G12R 5
                                R16G20G29G21
  19090832.940 1 101943966.903 1
  22154724.338 1 116423878.845 1
  22407585.462 1 117752648.890 1
  20844195.153 1 111463374.395 1
  22721147.486 2 121542807.890 1
  23478180.436 1 123378607.193 1
  24595787.728 1 129251771.938 1
  20994580.500 1 110327305.292 1
  24853085.710 4 130603826.25522
  22779913.735 1 121899839.636 1
  20685948.027 1 108705388.924 1
  23152337.420 1 123762574.384 1
  21097857.495 1 112700809.191 1
  24858363.807 1 130631598.316 1
  22201074.978 1 116667454.028 1
  23177897.159 1 121800672.668 1
 19 11  9 18  7 56.9990053  0 16R 9G 5G24R20R19G 2G31G25G15R21G12R 5
                                R16G20G29G21
  19090714.383 1 101943334.131 1
  22154754.038 1 116424036.918 1
  22408152.419 1 117755628.483 1
  20844396.354 1 111464452.299 1
  22721633.091 2 121545404.867 1
  23478823.232 1 123381984.567 1
  24595275.320 1 129249076.298 1
  20994158.274 1 110325086.720 1
  24853041.246 4 130603589.03222
  22779678.576 1 121898580.029 1
  20685978.076 1 108705544.415 1
  23151865.810 1 123760053.627 1
  21098539.136 1 112704451.567 1
  24857718.149 1 130628206.757 1
  22201015.368 1 116667140.876 1
  23177365.346 1 121797878.986 1
 19 11  9 18  7 57.9990053  0 16R 9G 5G24R20R19G 2G31G25G15R21G12R 5
                                R16G20G29G21
  19090595.826 1 101942702.185 1
  22154784.367 1 116424195.432 1
  22408719.307 1 117758608.132 1
  20844598.462 1 111465530.342 1
  22722118.870 2 121548001.640 1
  23479466.273 1 123385361.899 1
  24594762.458 1 129246380.937 1
  20993736.189 1 110322868.369 1
  24852998.144 4 130603351.43322
  22779443.626 1 121897320.765 1
  20686007.741 1 108705700.320 1
  23151394.480 1 123757532.766 1
  21099221.300 1 112708094.329 1
  24857072.805 1 130624814.951 1
  22200956.037 1 116666827.642 1
  23176833.917 1 121795085.549 1
 19 11  9 18  7 58.9990053  0 16R 9G 5G24R20R19G 2G31G25G15R21G12R 5
                                R16G20G29G21
  19090477.619 1 101942071.037 1
  22154814.521 1 116424354.410 1
  22409286.788 1 117761587.835 1
  20844800.641 1 111466608.558 1
  22722604.614 2 121550598.055 1
  23480109.034 1 123388739.234 1
  24594249.527 1 129243685.946 1
  20993314.033 1 110320650.239 1
  24852951.064 4 130603113.48521
  22779208.816 1 121896061.852 1
  20686037.267 1 108705856.650 1
  23150922.626 2 123755011.751 1
  21099903.533 1 112711737.504 1
  24856427.147 1 130621422.931 1
  22200896.393 1 116666514.317 1
  23176302.523 1 121792292.302 1
 19 11  9 18  7 59.9990053  0 16R 9G 5G24R20R19G 2G31G25G15R21G12R 5
                                R16G20G29G21
  19090359.620 1 101941440.745 1
  22154844.535 1 116424513.897 1
  22409853.850 1 117764567.648 1
  20845002.435 1 111467686.979 1
  22723090.184 2 121553194.323 1
  23480751.796 1 123392116.575 1
  24593737.432 1 129240991.332 1
  20992892.087 1 110318432.392 1
  24852906.286 2 130602875.24721
  22778974.145 1 121894803.287 1
  20686066.828 1 108706013.449 1
  23150450.493 2 123752490.764 1
  21100585.558 1 112715381.156 1
  24855782.047 1 130618030.750 1
  22200836.294 1 116666200.957 1
  23175771.060 1 121789499.372 1
 19 11  9 18  8  0.9990053  0 16R 9G 5G24R20R19G 2G31G25G15R21G12R 5
                                R16G20G29G21
  19090241.727 1 101940811.223 1
  22154874.933 1 116424673.835 1
  22410420.808 1 117767547.483 1
  20845204.439 1 111468765.555 1
  22723576.068 2 121555790.309 1
  23481394.731 1 123395493.900 1
  24593225.338 1 129238297.027 1
  20992470.071 1 110316214.742 1
  24852860.532 2 130602636.614 1
  22778739.754 1 121893545.026 1
  20686097.121 1 108706170.654 1
  23149978.849 1 123749969.693 1
  21101267.687 1 112719025.206 1
  24855136.319 1 130614638.336 1
  22200776.963 1 116665887.497 1
  23175239.561 1 121786706.671 1
 19 11  9 18  8  1.9990053  0 16R 9G 5G24R20R19G 2G31G25G15R21G12R 5
                                R16G20G29G21
  19090124.007 1 101940182.593 1
  22154905.576 1 116424834.289 1
  22410987.626 1 117770527.428 1
  20845406.408 1 111469844.337 1
  22724061.463 2 121558386.098 1
  23482037.423 1 123398871.267 1
  24592713.279 1 129235603.147 1
  20992047.880 1 110313997.388 1
  24852814.917 4 130602397.746 2
  22778505.014 1 121892287.187 1
  20686127.415 1 108706328.349 1
  23149507.169 1 123747448.586 1
  21101949.676 1 112722669.702 1
  24854490.836 1 130611245.777 1
  22200716.900 1 116665574.053 1
  23174708.341 1 121783914.280 1
 19 11  9 18  8  2.9990053  0 16R 9G 5G24R20R19G 2G31G25G15R21G12R 5
                                R16G20G29G21
  19090006.358 1 101939554.834 1
  22154936.428 1 116424995.301 1
  22411554.584 1 117773507.530 1
  20845608.621 1 111470923.416 1
  22724546.789 2 121560981.721 1
  23482680.080 1 123402248.704 1
  24592201.220 1 129232909.683 1
  20991626.108 1 110311780.336 1
  24852769.407 4 130602158.619 2
  22778270.134 1 121891029.732 1
  20686157.953 1 108706486.549 1
  23149035.699 2 123744927.527 1
  21102631.980 1 112726314.661 1
  24853845.248 1 130607853.068 1
  22200657.045 1 116665260.572 1
  23174177.331 1 121781122.205 1
 19 11  9 18  8  3.9990053  0 16R 9G 5G24R20R19G 2G31G25G15R21G12R 5
                                R16G20G29G21
  19089888.883 1 101938928.005 1
  22154967.699 1 116425156.874 1
  22412121.681 1 117776487.774 1
  20845810.939 1 111472002.731 1
  22725031.591 2 121563577.167 1
  23483323.295 1 123405626.232 1
  24591689.300 1 129230216.625 1
  20991204.441 1 110309563.627 1
  24852723.827 4 130601919.221 2
  22778035.254 1 121889772.729 1
  20686187.967 1 108706645.272 1
  23148564.299 1 123742406.453 1
  21103314.144 1 112729960.136 1
  24853199.520 1 130604460.274 1
  22200597.296 1 116664947.141 1
  23173646.181 1 121778330.461 1
 19 11  9 18  8  4.9990053  0 16R 9G 5G24R20R19G 2G31G25G15R21G12R 5
                                R16G20G29G21
  19089771.443 1 101938301.993 1
  22154998.655 1 116425318.910 1
  22412688.708 1 117779468.054 1
  20846013.152 1 111473082.217 1
  22725516.672 2 121566172.372 1
  23483966.545 1 123409003.728 1
  24591177.346 2 129227523.953 1
  20990782.914 1 110307347.110 1
  24852678.107 4 130601679.402 2
  22777799.815 1 121888516.009 1
  20686218.296 1 108706804.421 1
  23148093.004 1 123739885.266 1
  21103995.958 1 112733605.978 1
  24852553.862 1 130601067.251 1
  22200537.093 1 116664633.610 1
  23173115.276 1 121775538.972 1
 19 11  9 18  8  5.9990053  0 16R 9G 5G24R20R19G 2G31G25G15R21G12R 5
                                R16G20G29G21
  19089653.759 1 101937676.667 1
  22155029.577 1 116425481.288 1
  22413255.945 1 117782448.323 1
  20846215.574 1 111474161.745 1
  22726001.962 2 121568767.249 1
  23484609.550 1 123412381.113 1
  24590665.287 1 129224831.504 1
  20990361.142 1 110305130.745 1
  24852631.969 2 130601439.242 1
  22777564.796 1 121887259.556 1
  20686248.554 1 108706963.902 1
  23147622.057 1 123737363.889 1
  21104678.262 1 112737252.156 1
  24851908.099 1 130597673.930 1
  22200477.134 1 116664319.919 1
  23172584.126 1 121772747.609 1
 19 11  9 18  8  6.9990053  0 16R 9G 5G24R20R19G 2G31G25G15R21G12R 5
                                R16G20G29G21
  19089536.598 1 101937052.200 1
  22155060.604 1 116425644.226 1
  22413823.251 1 117785428.672 1
  20846417.368 1 111475241.500 1
  22726486.939 2 121571361.911 1
  23485252.416 1 123415758.541 1
  24590153.577 1 129222139.440 1
  20989939.370 1 110302914.653 1
  24852586.075 4 130601198.713 2
  22777330.125 1 121886003.474 1
  20686278.883 1 108707123.869 1
  23147150.936 1 123734842.510 1
  21105361.054 1 112740898.793 1
  24851262.441 1 130594280.416 1
  22200417.105 1 116664006.184 1
  23172052.837 1 121769956.548 1
 19 11  9 18  8  7.9990053  0 16R 9G 5G24R20R19G 2G31G25G15R21G12R 5
                                R16G20G29G21
  19089419.577 1 101936428.670 1
  22155091.874 1 116425807.706 1
  22414390.628 1 117788409.180 1
  20846619.233 1 111476321.523 1
  22726972.020 2 121573956.473 1
  23485895.457 1 123419136.054 1
  24589641.901 1 129219447.822 1
  20989517.808 1 110300698.906 1
  24852540.320 4 130600957.975 2
  22777095.036 1 121884747.795 1
  20686309.490 1 108707284.346 1
  23146679.850 1 123732321.131 1
  21106043.846 1 112744545.916 1
  24850616.504 1 130590886.831 1
  22200357.495 1 116663692.466 1
  23171521.513 1 121767165.821 1
 19 11  9 18  8  8.9990053  0 16R 9G 5G24R20R19G 2G31G25G15R21G12R 5
                                R16G20G29G21
  19089302.626 1 101935805.981 1
  22155123.355 1 116425971.687 1
  22414957.795 1 117791389.807 1
  20846821.062 1 111477401.775 1
  22727457.101 2 121576550.789 1
  23486538.183 1 123422513.594 1
  24589129.807 1 129216756.588 1
  20989096.490 1 110298483.444 1
  24852494.531 4 130600716.903 2
  22776860.261 1 121883492.534 1
  20686340.203 1 108707445.308 1
  23146208.555 1 123729799.750 1
  21106726.429 1 112748193.484 1
  24849970.532 1 130587493.057 1
  22200297.920 1 116663378.742 1
  23170990.642 1 121764375.391 1
 19 11  9 18  8  9.9990053  0 16R 9G 5G24R20R19G 2G31G25G15R21G12R 5
                                R16G20G29G21
  19089186.093 1 101935184.166 1
  22155154.695 1 116426136.236 1
  22415524.822 1 117794370.562 1
  20847023.170 1 111478482.259 1
  22727942.112 2 121579144.956 1
  23487181.014 1 123425891.207 1
  24588617.853 1 129214065.787 1
  20988675.451 1 110296268.278 1
  24852448.742 4 130600475.659 2
  22776625.590 1 121882237.684 1
  20686370.706 1 108707606.781 1
  23145736.980 1 123727278.350 1
  21107409.465 1 112751841.547 1
  24849324.559 1 130584099.162 1
  22200238.031 1 116663065.008 1
  23170460.086 1 121761585.291 1
 19 11  9 18  8 10.9990053  0 16R 9G 5G24R20R19G 2G31G25G15R21G12R 5
                                R16G20G29G21
  19089069.561 1 101934563.006 1
  22155185.931 1 116426301.099 1
  22416092.164 1 117797351.218 1
  20847225.418 1 111479562.770 1
  22728426.984 2 121581738.723 1
  23487823.427 1 123429268.668 1
  24588105.793 1 129211375.191 1
  20988254.272 1 110294053.212 1
  24852403.127 2 130600233.884 2
  22776390.710 1 121880983.015 1
  20686401.523 1 108707768.540 1
  23145265.405 1 123724756.750 1
  21108092.153 1 112755489.882 1
  24848678.832 1 130580704.915 1
  22200178.142 1 116662751.069 1
  23169929.250 1 121758795.285 1
 19 11  9 18  8 11.9990053  0 16R 9G 5G24R20R19G 2G31G25G15R21G12R 5
                                R16G20G29G21
  19088953.168 1 101933942.903 1
  22155217.656 1 116426466.644 1
  22416659.680 1 117800332.139 1
  20847427.806 1 111480643.629 1
  22728911.437 2 121584332.423 1
  23488466.118 1 123432646.321 1
  24587593.979 1 129208685.151 1
  20987832.536 1 110291838.573 1
  24852357.233 4 130599991.941 2
  22776156.075 1 121879728.885 1
  20686432.584 1 108707930.923 1
  23144793.377 1 123722235.233 1
  21108774.840 1 112759138.815 1
  24848032.999 1 130577310.649 1
  22200118.113 1 116662437.241 1
  23169398.449 1 121756005.720 1
 19 11  9 18  8 12.9990053  0 16R 9G 5G24R20R19G 2G31G25G15R21G12R 5
                                R16G20G29G21
  19088837.159 1 101933323.611 1
  22155249.799 1 116426632.642 1
  22417227.021 1 117803313.107 1
  20847630.543 1 111481724.678 1
  22729396.588 2 121586925.889 1
  23489109.228 1 123436023.961 1
  24587081.954 1 129205995.444 1
  20987410.834 1 110289624.172 1
  24852311.374 4 130599749.698 2
  22775921.683 1 121878475.077 1
  20686463.750 1 108708093.747 1
  23144321.663 1 123719713.671 1
  21109457.842 1 112762788.138 1
  24847387.166 1 130573916.190 1
  22200058.643 1 116662123.328 1
  23168867.439 1 121753216.408 1
 19 11  9 18  8 13.9990053  0 16R 9G 5G24R20R19G 2G31G25G15R21G12R 5
                                R16G20G29G21
  19088721.324 1 101932705.011 1
  22155281.523 1 116426799.001 1
  22417794.118 1 117806293.978 1
  20847832.337 1 111482805.742 1
  22729880.936 2 121589519.008 1
  23489751.780 1 123439401.467 1
  24586570.279 1 129203305.934 1
  20986989.376 1 110287409.866 1
  24852265.445 4 130599506.938 2
  22775687.118 1 121877221.467 1
  20686494.672 1 108708256.867 1
  23143849.529 1 123717191.885 1
  21110141.122 1 112766437.760 1
  24846741.159 1 130570521.385 1
  22199998.684 1 116661809.214 1
  23168336.499 1 121750427.201 1
 19 11  9 18  8 14.9990053  0 16R 9G 5G24R20R19G 2G31G25G15R21G12R 5
                                R16G20G29G21
  19088605.489 1 101932087.368 1
  22155313.108 1 116426965.983 1
  22418361.390 1 117809275.096 1
  20848034.480 1 111483887.162 1
  22730365.424 2 121592112.019 1
  23490394.053 1 123442779.120 1
  24586058.848 1 129200616.958 1
  20986568.058 1 110285195.978 1
  24852219.236 4 130599263.956 3
  22775452.622 1 121875968.363 1
  20686525.699 1 108708420.588 1
  23143377.641 1 123714670.202 1
  21110824.543 1 112770087.915 1
  24846095.117 1 130567126.557 1
  22199939.004 1 116661495.202 1
  23167805.768 1 121747638.421 1
 19 11  9 18  8 15.9990053  0 16R 9G 5G24R20R19G 2G31G25G15R21G12R 5
                                R16G20G29G21
  19088490.213 1 101931470.673 1
  22155345.252 1 116427133.589 1
  22418928.836 1 117812256.426 1
  20848236.693 1 111484968.860 1
  22730849.877 2 121594704.940 1
  23491036.570 1 123446156.913 1
  24585547.068 1 129197928.472 1
  20986146.740 1 110282982.452 1
  24852173.238 4 130599020.873 2
  22775218.789 1 121874715.774 1
  20686556.934 1 108708584.889 1
  23142905.752 1 123712148.581 1
  21111508.033 1 112773738.658 1
  24845449.041 1 130563731.639 1
  22199879.115 1 116661181.265 1
  23167274.967 1 121744850.028 1
 19 11  9 18  8 16.9990053  0 16R 9G 5G24R20R19G 2G31G25G15R21G12R 5
                                R16G20G29G21
  19088375.181 1 101930855.003 1
  22155377.151 1 116427301.840 1
  22419496.282 1 117815237.976 1
  20848439.186 1 111486050.941 1
  22731334.609 2 121597297.828 1
  23491679.331 1 123449534.875 1
  24585035.183 2 129195240.493 1
  20985725.666 1 110280769.341 1
  24852126.122 4 130598777.605 3
  22774985.060 1 121873463.725 1
  20686588.205 1 108708749.792 1
  23142434.177 1 123709627.046 1
  21112191.383 1 112777389.967 1
  24844802.929 1 130560336.695 1
  22199819.505 1 116660867.423 1
  23166744.132 1 121742062.055 1
 19 11  9 18  8 17.9990053  0 16R 9G 5G24R20R19G 2G31G25G15R21G12R 5
                                R16G20G29G21
  19088260.848 1 101930240.154 1
  22155409.852 1 116427470.613 1
  22420063.554 1 117818219.646 1
  20848641.608 1 111487133.239 1
  22731819.376 2 121599890.478 1
  23492321.779 1 123452912.866 1
  24584523.438 1 129192552.897 1
  20985304.662 1 110278556.533 1
  24852076.180 4 130598534.037 2
  22774751.088 1 121872212.010 1
  20686620.069 1 108708915.175 1
  23141962.498 1 123707105.478 1
  21112875.013 1 112781041.689 1
  24844156.642 1 130556941.599 1
  22199759.685 1 116660553.549 1
  23166213.401 1 121739274.369 1
 19 11  9 18  8 18.9990053  0 16R 9G 5G24R20R19G 2G31G25G15R21G12R 5
                                R16G20G29G21
  19088146.619 1 101929626.155 1
  22155442.135 1 116427639.840 1
  22420630.651 1 117821201.382 1
  20848844.066 1 111488215.672 1
  22732303.829 2 121602482.869 1
  23492964.400 1 123456290.855 1
  24584011.763 2 129189865.659 1
  20984883.449 1 110276343.933 1
  24852029.971 8 130598290.062 3
  22774517.290 1 121870960.615 1
  20686651.864 1 108709080.989 1
  23141490.993 1 123704583.825 1
  21113558.817 1 112784693.852 1
  24843510.566 1 130553546.280 1
  22199700.145 1 116660239.598 1
  23165682.495 1 121736486.931 1
 19 11  9 18  8 19.9990053  0 16R 9G 5G24R20R19G 2G31G25G15R21G12R 5
                                R16G20G29G21
  19088032.320 1 101929012.832 1
  22155474.279 1 116427809.438 1
  22421198.237 1 117824183.059 1
  20849046.418 1 111489298.177 1
  22732788.108 2 121605074.915 1
  23493606.848 1 123459668.693 1
  24583500.018 1 129187178.616 1
  20984462.689 1 110274131.467 1
  24851989.766 8 130598045.690 2
  22774283.283 1 121869709.444 1
  20686682.960 1 108709247.107 1
  23141019.314 1 123702062.019 1
  21114243.040 1 112788346.306 1
  24842864.210 1 130550150.643 1
  22199640.466 1 116659925.467 1
  23165151.869 1 121733699.631 1
 19 11  9 18  8 20.9990053  0 16R 9G 5G24R20R19G 2G31G25G15R21G12R 5
                                R16G20G29G21
  19087918.335 1 101928400.457 1
  22155506.631 1 116427979.624 1
  22421765.893 1 117827164.928 1
  20849248.527 1 111490380.965 1
  22733272.316 2 121607666.914 1
  23494249.853 1 123463046.669 1
  24582988.761 1 129184492.119 1
  20984041.580 1 110271919.351 1
  24851942.616 8 130597801.107 2
  22774049.624 1 121868458.774 1
  20686714.475 1 108709413.806 1
  23140547.529 1 123699540.273 1
  21114927.089 1 112791999.292 1
  24842217.923 1 130546754.939 1
  22199580.158 1 116659611.372 1
  23164621.103 1 121730912.710 1
 19 11  9 18  8 21.9990053  0 16R 9G 5G24R20R19G 2G31G25G15R21G12R 5
                                R16G20G29G21
  19087804.594 1 101927789.053 1
  22155539.054 1 116428150.449 1
  22422333.443 1 117830147.029 1
  20849451.019 1 111491464.122 1
  22733756.804 2 121610258.711 1
  23494892.614 1 123466424.780 1
  24582477.226 2 129181806.034 1
  20983620.646 1 110269707.639 1
  24851891.521 4 130597556.292 2
  22773816.489 1 121867208.579 1
  20686746.060 1 108709581.089 1
  23140075.710 1 123697018.620 1
  21115611.417 1 112795652.846 1
  24841571.637 1 130543359.199 1
  22199520.024 1 116659297.365 1
  23164090.966 1 121728126.174 1
 19 11  9 18  8 22.9990053  0 16R 9G 5G24R20R19G 2G31G25G15R21G12R 5
                                R16G20G29G21
  19087690.958 1 101927178.334 1
  22155571.406 1 116428321.614 1
  22422900.610 1 117833129.048 1
  20849653.546 1 111492547.270 1
  22734241.327 2 121612850.185 1
  23495535.515 1 123469802.755 1
  24581965.934 2 129179120.233 1
  20983200.026 1 110267496.037 1
  24851846.430 4 130597311.031 2
  22773583.389 1 121865958.591 1
  20686777.575 1 108709748.669 1
  23139604.031 1 123694496.754 1
  21116295.570 1 112799306.657 1
  24840925.630 1 130539963.106 1
  22199460.449 1 116658983.159 1
  23163560.584 1 121725339.768 1
 19 11  9 18  8 23.9990053  0 16R 9G 5G24R20R19G 2G31G25G15R21G12R 5
                                R16G20G29G21
  19087577.462 1 101926568.562 1
  22155603.934 1 116428493.379 1
  22423468.092 1 117836111.251 1
  20849856.178 1 111493630.748 1
  22734725.675 1 121615441.515 1
  23496178.207 1 123473180.847 1
  24581454.678 2 129176434.916 1
  20982779.092 1 110265284.795 1
  24851798.616 8 130597065.576 3
  22773349.556 1 121864709.047 1
  20686809.788 1 108709916.814 1
  23139132.177 1 123691974.924 1
  21116979.898 1 112802961.006 1
  24840279.414 1 130536566.941 1
  22199400.700 1 116658669.016 1
  23163030.411 1 121722553.719 1
 19 11  9 18  8 24.9990053  0 16R 9G 5G24R20R19G 2G31G25G15R21G12R 5
                                R16G20G29G21
  19087463.268 1 101925959.571 1
  22155636.635 1 116428665.581 1
  22424035.747 1 117839093.489 1
  20850058.705 1 111494714.321 1
  22735209.954 2 121618032.572 1
  23496820.898 1 123476558.903 1
  24580943.421 1 129173749.878 1
  20982358.018 1 110263073.748 1
  24851752.094 4 130596819.720 2
  22773115.968 1 121863459.792 1
  20686842.350 1 108710085.348 1
  23138660.323 1 123689452.959 1
  21117664.051 1 112806615.731 1
  24839633.023 1 130533170.509 1
  22199340.357 1 116658354.735 1
  23162500.553 1 121719767.904 1
 19 11  9 18  8 25.9990053  0 16R 9G 5G24R20R19G 2G31G25G15R21G12R 5
                                R16G20G29G21
  19087349.667 1 101925351.678 1
  22155669.302 1 116428838.513 1
  22424603.403 1 117842076.035 1
  20850260.953 1 111495798.360 1
  22735693.953 2 121620623.673 1
  23497463.450 1 123479937.206 1
  24580432.444 2 129171065.447 1
  20981937.538 1 110260863.210 1
  24851705.676 4 130596573.806 2
  22772882.344 1 121862211.153 1
  20686874.424 1 108710254.587 1
  23138188.783 1 123686931.210 1
  21118348.274 1 112810271.111 1
  24838986.666 1 130529774.161 1
  22199280.502 1 116658040.684 1
  23161970.415 1 121716982.580 1
 19 11  9 18  8 26.9990053  0 16R 9G 5G24R20R19G 2G31G25G15R21G12R 5
                                R16G20G29G21
  19087236.066 1 101924744.822 1
  22155701.934 1 116429012.123 1
  22425170.954 1 117845058.840 1
  20850463.620 1 111496882.775 1
  22736178.580 2 121623214.729 1
  23498106.526 1 123483315.708 1
  24579921.188 2 129168381.540 1
  20981516.883 1 110258653.114 1
  24851659.050 4 130596327.752 2
  22772649.139 1 121860963.063 1
  20686906.811 1 108710424.460 1
  23137717.488 1 123684409.618 1
  21119032.776 1 112813927.100 1
  24838340.276 1 130526377.815 1
  22199220.893 1 116657726.732 1
  23161440.313 1 121714197.722 1
 19 11  9 18  8 27.9990053  0 16R 9G 5G24R20R19G 2G31G25G15R21G12R 5
                                R16G20G29G21
  19087122.326 1 101924138.655 1
  22155735.473 1 116429186.091 1
  22425738.888 1 117848041.584 1
  20850666.671 1 111497967.218 1
  22736662.580 2 121625805.396 1
  23498749.008 1 123486694.070 1
  24579409.931 1 129165697.878 1
  20981096.123 1 110256443.114 1
  24851612.388 4 130596081.291 2
  22772416.179 1 121859715.185 1
  20686938.990 1 108710594.639 1
  23137246.123 1 123681887.837 1
  21119717.313 1 112817583.382 1
  24837693.745 1 130522981.121 1
  22199161.352 1 116657412.597 1
  23160910.280 1 121711412.969 1
 19 11  9 18  8 28.9990053  0 16R 9G 5G24R20R19G 2G31G25G15R21G12R 5
                                R16G20G29G21
  19087008.550 1 101923533.275 1
  22155768.873 1 116429360.514 1
  22426306.509 1 117851024.398 1
  20850869.338 1 111499051.846 1
  22737146.579 2 121628395.835 1
  23499391.769 1 123490072.416 1
  24578898.954 2 129163014.609 1
  20980675.294 1 110254233.364 1
  24851565.830 4 130595834.385 3
  22772183.498 1 121858467.640 1
  20686971.272 1 108710765.257 1
  23136774.304 1 123679365.958 1
  21120402.095 1 112821240.051 1
  24837047.319 1 130519584.222 1
  22199101.114 1 116657098.395 1
  23160380.526 1 121708628.492 1
 19 11  9 18  8 29.9990053  0 16R 9G 5G24R20R19G 2G31G25G15R21G12R 5
                                R16G20G29G21
  19086895.089 1 101922928.816 1
  22155802.238 1 116429535.499 1
  22426873.955 1 117854007.333 1
  20851072.423 1 111500136.718 1
  22737630.543 2 121630986.097 1
  23500034.705 1 123493450.842 1
  24578387.872 2 129160331.682 1
  20980254.639 1 110252023.917 1
  24851518.575 4 130595587.270 2
  22771950.817 1 121857220.485 1
  20687003.800 1 108710936.386 1
  23136303.008 1 123676844.071 1
  21121087.016 1 112824897.208 1
  24836400.858 1 130516187.224 1
  22199041.574 1 116656784.169 1
  23159850.912 1 121705844.323 1
 19 11  9 18  8 30.9990053  0 16R 9G 5G24R20R19G 2G31G25G15R21G12R 5
                                R16G20G29G21
  19086782.012 1 101922325.330 1
  22155835.568 1 116429711.129 1
  22427441.750 1 117856990.487 1
  20851275.404 1 111501221.916 1
  22738114.647 2 121633576.313 1
  23500677.501 1 123496829.409 1
  24577876.581 2 129157649.344 1
  20979834.403 1 110249814.884 1
  24851471.774 4 130595339.958 2
  22771717.891 1 121855973.846 1
  20687036.571 1 108711108.118 1
  23135830.910 1 123674322.270 1
  21121771.937 1 112828554.932 1
  24835754.502 1 130512790.176 1
  22198981.685 1 116656470.061 1
  23159321.612 1 121703060.586 1
 19 11  9 18  8 31.9990053  0 16R 9G 5G24R20R19G 2G31G25G15R21G12R 5
                                R16G20G29G21
  19086668.725 1 101921722.715 1
  22155869.456 1 116429887.270 1
  22428009.266 1 117859973.752 1
  20851478.944 1 111502307.338 1
  22738598.821 2 121636166.284 1
  23501320.577 1 123500208.003 1
  24577365.917 2 129154967.320 1
  20979413.992 1 110247606.128 1
  24851425.426 2 130595092.338 1
  22771484.966 1 121854727.609 1
  20687069.552 1 108711280.316 1
  23135358.882 1 123671800.470 1
  21122456.928 1 112832213.087 1
  24835108.076 1 130509392.956 1
  22198922.249 1 116656155.914 1
  23158791.858 1 121700277.151 1
 19 11  9 18  8 32.9990053  0 16R 9G 5G24R20R19G 2G31G25G15R21G12R 5
                                R16G20G29G21
  19086555.577 1 101921120.867 1
  22155903.484 1 116430063.845 1
  22428577.271 1 117862957.052 1
  20851681.785 1 111503392.875 1
  22739082.820 2 121638755.993 1
  23501963.513 1 123503586.574 1
  24576855.359 2 129152285.682 1
  20978993.651 1 110245397.584 1
  24851378.171 2 130594844.401 1
  22771251.935 1 121853481.706 1
  20687102.638 1 108711452.923 1
  23134886.783 1 123669278.565 1
  21123141.814 1 112835871.609 1
  24834461.616 1 130505995.500 1
  22198862.814 1 116655841.662 1
  23158262.279 1 121697493.912 1
 19 11  9 18  8 33.9990053  0 16R 9G 5G24R20R19G 2G31G25G15R21G12R 5
                                R16G20G29G21
  19086442.360 1 101920519.841 1
  22155937.547 1 116430240.890 1
  22429144.927 1 117865940.410 1
  20851884.626 1 111504478.570 1
  22739566.715 2 121641345.438 1
  23502606.832 1 123506965.129 1
  24576345.359 2 129149604.351 1
  20978573.555 1 110243189.257 1
  24851331.020 2 130594596.028 1
  22771019.045 1 121852236.124 1
  20687135.584 1 108711625.951 1
  23134414.895 1 123666756.571 1
  21123827.154 1 112839530.545 1
  24833815.260 1 130502597.813 1
  22198802.855 1 116655527.319 1
  23157732.769 1 121694710.916 1
 19 11  9 18  8 34.9990053  0 16R 9G 5G24R20R19G 2G31G25G15R21G12R 5
                                R16G20G29G21
  19086329.667 1 101919919.791 1
  22155971.051 1 116430418.546 1
  22429712.687 1 117868923.949 1
  20852087.887 1 111505564.578 1
  22740050.853 2 121643934.814 1
  23503250.082 1 123510343.791 1
  24575835.533 2 129146923.500 1
  20978153.249 1 110240981.312 1
  24851283.835 4 130594347.518 2
  22770786.015 1 121850990.969 1
  20687168.530 1 108711799.551 1
  23133942.727 1 123664234.662 1
  21124512.075 1 112843190.062 1
  24833168.799 1 130499200.087 1
  22198743.071 1 116655213.081 1
  23157203.051 1 121691928.314 1
 19 11  9 18  8 35.9990053  0 16R 9G 5G24R20R19G 2G31G25G15R21G12R 5
                                R16G20G29G21
  19086217.253 1 101919320.591 1
  22156004.940 1 116430596.697 1
  22430280.587 1 117871907.558 1
  20852290.414 1 111506650.765 1
  22740534.992 2 121646523.941 1
  23503892.739 1 123513722.489 1
  24575325.428 2 129144243.073 1
  20977733.431 1 110238773.643 1
  24851236.335 4 130594098.697 2
  22770553.787 1 121849746.180 1
  20687201.371 1 108711973.621 1
  23133470.803 1 123661712.712 1
  21125197.589 1 112846850.014 1
  24832522.373 1 130495802.166 1
  22198683.356 1 116654898.760 1
  23156673.820 1 121689145.978 1
 19 11  9 18  8 36.9990053  0 16R 9G 5G24R20R19G 2G31G25G15R21G12R 5
                                R16G20G29G21
  19086105.222 1 101918722.433 1
  22156039.177 1 116430775.577 1
  22430848.382 1 117874891.496 1
  20852493.569 1 111507737.406 1
  22741019.306 2 121649113.099 1
  23504536.442 1 123517101.419 1
  24574815.219 2 129141563.190 1
  20977313.335 1 110236566.462 1
  24851189.325 2 130593849.802 1
  22770321.525 1 121848501.988 1
  20687234.422 1 108712148.375 1
  23132998.984 1 123659190.937 1
  21125882.789 1 112850510.596 1
  24831875.633 1 130492404.296 1
  22198623.711 1 116654584.634 1
  23156144.520 1 121686364.144 1
 19 11  9 18  8 37.9990053  0 16R 9G 5G24R20R19G 2G31G25G15R21G12R 5
                                R16G20G29G21
  19085993.262 1 101918125.054 1
  22156073.310 1 116430954.878 1
  22431416.072 1 117877875.441 1
  20852696.655 1 111508824.137 1
  22741503.305 2 121651701.941 1
  23505179.692 1 123520480.279 1
  24574304.800 4 129138883.608 2
  20976893.273 1 110234359.458 1
  24851142.139 2 130593600.489 1
  22770089.018 1 121847258.101 1
  20687267.752 1 108712323.515 1
  23132527.235 1 123656668.999 1
  21126567.850 1 112854171.542 1
  24831229.102 1 130489006.178 1
  22198563.997 1 116654270.380 1
  23155615.500 1 121683582.503 1
 19 11  9 18  8 38.9990053  0 16R 9G 5G24R20R19G 2G31G25G15R21G12R 5
                                R16G20G29G21
  19085881.580 1 101917528.543 1
  22156107.268 1 116431134.745 1
  22431983.833 1 117880859.551 1
  20852899.740 1 111509911.137 1
  22741987.269 2 121654290.624 1
  23505822.663 1 123523859.230 1
  24573794.835 2 129136204.486 1
  20976473.386 1 110232152.782 1
  24851094.360 2 130593350.906 2
  22769856.965 1 121846014.625 1
  20687301.465 1 108712499.176 1
  23132055.660 1 123654147.052 1
  21127253.434 1 112857832.963 1
  24830582.258 1 130485607.918 1
  22198504.631 1 116653956.145 1
  23155086.374 1 121680801.209 1
 19 11  9 18  8 39.9990053  0 16R 9G 5G24R20R19G 2G31G25G15R21G12R 5
                                R16G20G29G21
  19085770.073 1 101916933.039 1
  22156141.435 1 116431315.252 1
  22432551.663 1 117883843.895 1
  20853102.547 1 111510998.453 1
  22742470.954 2 121656879.279 1
  23506466.088 1 123527238.343 1
  24573285.393 2 129133525.919 1
  20976053.534 1 110229946.541 1
  24851046.721 4 130593101.172 2
  22769624.842 1 121844771.676 1
  20687335.109 1 108712675.444 1
  23131584.016 1 123651625.261 1
  21127939.228 1 112861494.945 1
  24829935.657 1 130482209.670 1
  22198445.370 1 116653642.014 1
  23154557.039 1 121678020.347 1
 19 11  9 18  8 40.9990053  0 16R 9G 5G24R20R19G 2G31G25G15R21G12R 5
                                R16G20G29G21
  19085658.601 1 101916338.435 1
  22156175.812 1 116431496.283 1
  22433119.493 1 117886828.296 1
  20853305.388 1 111512086.027 1
  22742955.198 2 121659467.713 1
  23507109.163 1 123530617.514 1
  24572775.882 4 129130847.708 2
  20975634.170 1 110227740.590 1
  24850997.023 4 130592851.169 2
  22769392.650 1 121843529.096 1
  20687368.963 1 108712852.230 1
  23131113.034 1 123649103.475 1
  21128625.405 1 112865157.412 1
  24829288.778 2 130478811.257 1
  22198385.830 1 116653327.850 1
  23154028.053 1 121675239.779 1
 19 11  9 18  8 41.9990053  0 16R 9G 5G24R20R19G 2G31G25G15R21G12R 5
                                R16G20G29G21
  19085547.304 1 101915744.773 1
  22156210.084 1 116431677.920 1
  22433687.428 1 117889812.925 1
  20853508.439 1 111513173.891 1
  22743438.813 2 121662056.034 1
  23507752.203 1 123533996.788 1
  24572266.231 2 129128169.977 1
  20975214.213 1 110225534.996 1
  24850946.627 4 130592600.941 2
  22769160.771 1 121842287.014 1
  20687402.537 1 108713029.539 1
  23130641.739 1 123646581.775 1
  21129311.164 1 112868820.432 1
  24828642.212 1 130475412.762 1
  22198326.115 1 116653013.761 1
  23153498.718 1 121672459.601 1
 19 11  9 18  8 42.9990053  0 16R 9G 5G24R20R19G 2G31G25G15R21G12R 5
                                R16G20G29G21
  19085436.111 1 101915151.700 1
  22156244.426 1 116431859.790 1
  22434255.432 1 117892797.396 1
  20853711.455 1 111514261.686 1
  22743922.568 2 121664643.920 1
  23508394.930 1 123537375.821 1
  24571756.650 1 129125492.372 1
  20974794.361 1 110223329.401 1
  24850900.209 4 130592350.151 1
  22768928.962 1 121841045.000 1
  20687436.530 1 108713207.068 1
  23130170.339 1 123644059.749 1
  21129996.643 1 112872483.598 1
  24827995.263 1 130472013.830 1
  22198266.401 1 116652699.359 1
  23152969.628 1 121669679.453 1
 19 11  9 18  8 43.9990053  0 16R 9G 5G24R20R19G 2G31G25G15R21G12R 5
                                R16G20G29G21
  19085325.232 1 101914559.483 1
  22156279.013 1 116432042.218 1
  22434823.227 1 117895781.984 1
  20853914.506 1 111515349.736 1
  22744406.009 2 121667231.585 1
  23509037.621 1 123540754.905 1
  24571247.278 1 129122815.214 1
  20974374.299 1 110221124.139 1
  24850858.783 4 130592099.116 1
  22768697.363 1 121839803.401 1
  20687470.558 1 108713385.109 1
  23129698.764 1 123641537.700 1
  21130682.576 1 112876147.260 1
  24827348.453 1 130468614.773 1
  22198206.546 1 116652384.959 1
  23152440.433 1 121666899.644 1
 19 11  9 18  8 44.9990053  0 16R 9G 5G24R20R19G 2G31G25G15R21G12R 5
                                R16G20G29G21
  19085214.389 1 101913968.162 1
  22156313.494 1 116432225.175 1
  22435391.197 1 117898766.705 1
  20854117.870 1 111516437.976 1
  22744889.555 2 121669819.055 1
  23509680.802 1 123544134.046 1
  24570737.696 2 129120138.423 1
  20973954.971 1 110218919.166 1
  24850807.933 4 130591847.777 2
  22768465.345 1 121838562.180 1
  20687504.167 1 108713563.632 1
  23129227.119 1 123639015.657 1
  21131368.405 1 112879811.377 1
  24826701.783 1 130465215.581 1
  22198147.041 1 116652070.532 1
  23151911.796 1 121664120.138 1
 19 11  9 18  8 45.9990053  0 16R 9G 5G24R20R19G 2G31G25G15R21G12R 5
                                R16G20G29G21
  19085103.475 1 101913377.680 1
  22156348.220 1 116432408.643 1
  22435959.306 1 117901751.518 1
  20854321.096 1 111517526.422 1
  22745373.379 2 121672406.354 1
  23510323.947 1 123547513.211 1
  24570228.359 2 129117462.057 1
  20973535.677 1 110216714.468 1
  24850764.202 2 130591596.177 1
  22768233.711 1 121837321.346 1
  20687538.195 1 108713742.640 1
  23128755.300 1 123636493.580 1
  21132054.443 1 112883475.921 1
  24826054.729 1 130461816.188 1
  22198087.012 1 116651756.078 1
  23151383.298 1 121661340.912 1
 19 11  9 18  8 46.9990053  0 16R 9G 5G24R20R19G 2G31G25G15R21G12R 5
                                R16G20G29G21
  19084993.155 1 101912788.272 1
  22156383.365 1 116432592.816 1
  22436527.346 1 117904736.605 1
  20854524.077 1 111518615.271 1
  22745856.960 2 121674993.642 1
  23510966.813 1 123550892.617 1
  24569719.127 1 129114786.215 1
  20973116.174 1 110214510.240 1
  24850714.818 2 130591344.426 1
  22768002.077 1 121836081.098 1
  20687572.223 1 108713922.317 1
  23128283.307 1 123633971.661 1
  21132740.341 1 112887141.083 1
  24825407.780 1 130458416.857 1
  22198026.949 1 116651441.779 1
  23150854.627 1 121658562.164 1
 19 11  9 18  8 47.9990053  0 16R 9G 5G24R20R19G 2G31G25G15R21G12R 5
                                R16G20G29G21
  19084882.067 1 101912199.831 1
  22156418.335 1 116432777.617 1
  22437095.211 1 117907721.933 1
  20854727.895 1 111519704.451 1
  22746340.261 2 121677580.799 1
  23511609.714 1 123554272.149 1
  24569209.686 2 129112110.906 1
  20972696.915 1 110212306.402 1
  24850667.005 2 130591092.476 1
  22767770.408 1 121834841.359 1
  20687606.495 1 108714102.565 1
  23127811.418 1 123631449.838 1
  21133426.414 1 112890806.810 1
  24824760.970 1 130455017.464 1
  22197967.129 1 116651127.563 1
  23150325.885 1 121655783.810 1
 19 11  9 18  8 48.9990053  0 16R 9G 5G24R20R19G 2G31G25G15R21G12R 5
                                R16G20G29G21
  19084771.502 1 101911612.188 1
  22156453.375 1 116432962.848 1
  22437663.320 1 117910707.289 1
  20854931.783 1 111520793.761 1
  22746824.086 2 121680167.706 1
  23512252.894 1 123557651.646 1
  24568700.593 2 129109435.954 1
  20972277.307 1 110210102.770 1
  24850620.447 2 130590840.136 1
  22767538.913 1 121833601.911 1
  20687640.767 1 108714283.215 1
  23127339.564 1 123628927.867 1
  21134112.487 1 112894472.906 1
  24824114.195 1 130451617.843 1
  22197906.996 1 116650813.242 1
  23149797.527 1 121653005.671 1
 19 11  9 18  8 49.9990053  0 16R 9G 5G24R20R19G 2G31G25G15R21G12R 5
                                R16G20G29G21
  19084661.321 1 101911025.357 1
  22156488.730 1 116433148.570 1
  22438231.290 1 117913692.717 1
  20855135.881 1 111521883.238 1
  22747307.596 2 121682754.386 1
  23512895.969 1 123561031.148 1
  24568191.326 2 129106761.323 1
  20971857.873 1 110207899.409 1
  24850572.285 2 130590587.505 1
  22767307.593 1 121832362.816 1
  20687675.424 1 108714464.332 1
  23126867.292 1 123626405.867 1
  21134798.838 1 112898139.413 1
  24823467.176 1 130448218.052 1
  22197846.827 1 116650498.858 1
  23149269.030 1 121650227.808 1
 19 11  9 18  8 50.9990053  0 16R 9G 5G24R20R19G 2G31G25G15R21G12R 5
                                R16G20G29G21
  19084551.176 1 101910439.368 1
  22156523.909 1 116433334.813 1
  22438799.225 1 117916678.229 1
  20855339.735 1 111522972.907 1
  22747791.247 2 121685340.821 1
  23513539.080 1 123564410.671 1
  24567682.443 1 129104087.080 1
  20971438.510 1 110205696.315 1
  24850524.297 2 130590334.586 1
  22767076.098 1 121831124.073 1
  20687710.254 1 108714645.911 1
  23126395.403 1 123623883.830 1
  21135485.121 1 112901806.359 1
  24822820.401 1 130444818.050 1
  22197786.275 1 116650184.445 1
  23148740.917 1 121647450.224 1
 19 11  9 18  8 51.9990053  0 16R 9G 5G24R20R19G 2G31G25G15R21G12R 5
                                R16G20G29G21
  19084441.100 1 101909854.437 1
  22156559.124 1 116433521.761 1
  22439367.683 1 117919664.037 1
  20855544.077 1 111524062.985 1
  22748274.687 2 121687927.260 1
  23514182.678 1 123567790.393 1
  24567173.594 1 129101413.438 1
  20971019.670 1 110203493.684 1
  24850475.925 2 130590081.537 1
  22766844.639 1 121829885.907 1
  20687745.155 1 108714828.157 1
  23125923.828 1 123621361.943 1
  21136171.542 1 112905473.976 1
  24822173.417 1 130441418.089 1
  22197725.897 1 116649870.159 1
  23148212.803 1 121644673.111 1
 19 11  9 18  8 52.9990053  0 16R 9G 5G24R20R19G 2G31G25G15R21G12R 5
                                R16G20G29G21
  19084331.408 1 101909270.336 1
  22156594.583 1 116433709.184 1
  22439935.792 1 117922649.897 1
  20855748.558 1 111525153.223 1
  22748758.024 2 121690513.454 1
  23514825.719 1 123571170.126 1
  24566665.095 2 129098740.154 1
  20970600.620 1 110201291.307 1
  24850427.204 2 130589828.143 1
  22766613.144 1 121828648.111 1
  20687779.846 1 108715010.841 1
  23125451.590 1 123618840.036 1
  21136858.208 1 112909141.958 1
  24821526.467 1 130438017.933 1
  22197665.764 1 116649555.840 1
  23147684.550 1 121641896.246 1
 19 11  9 18  8 53.9990053  0 16R 9G 5G24R20R19G 2G31G25G15R21G12R 5
                                R16G20G29G21
  19084222.239 1 101908687.099 1
  22156630.739 1 116433897.117 1
  22440503.901 1 117925635.880 1
  20855953.284 1 111526243.691 1
  22749241.429 2 121693099.483 1
  23515468.829 1 123574549.878 1
  24566156.421 2 129096067.214 1
  20970181.501 1 110199089.214 1
  24850378.518 2 130589574.404 1
  22766381.964 1 121827410.664 1
  20687814.397 1 108715194.009 1
  23124979.318 2 123616318.076 1
  21137545.084 1 112912810.401 1
  24820879.483 1 130434617.619 1
  22197605.665 1 116649241.467 1
  23147156.332 1 121639119.683 1
 19 11  9 18  8 54.9990053  0 16R 9G 5G24R20R19G 2G31G25G15R21G12R 5
                                R16G20G29G21
  19084113.001 1 101908104.891 1
  22156666.757 1 116434085.732 1
  22441072.290 1 117928622.109 1
  20856157.731 1 111527334.553 1
  22749725.045 1 121695685.419 1
  23516112.044 1 123577929.819 1
  24565648.201 1 129093394.851 1
  20969762.521 1 110196887.544 1
  24850329.797 2 130589320.605 1
  22766150.713 1 121826173.688 1
  20687849.367 1 108715377.801 1
  23124507.359 1 123613796.245 1
  21138231.785 1 112916479.429 1
  24820232.219 1 130431217.282 1
  22197545.707 1 116648927.211 1
  23146627.905 1 121636343.562 1
 19 11  9 18  8 55.9990053  0 16R 9G 5G24R20R19G 2G31G25G15R21G12R 5
                                R16G20G29G21
  19084004.670 1 101907523.509 1
  22156703.123 1 116434274.835 1
  22441640.015 1 117931608.396 1
  20856362.352 1 111528425.565 1
  22750208.660 2 121698271.131 1
  23516755.469 1 123581309.780 1
  24565139.876 1 129090722.864 1
  20969343.646 1 110194686.125 1
  24850281.460 2 130589066.502 1
  22765919.393 1 121824937.112 1
  20687884.163 1 108715562.055 1
  23124035.366 1 123611274.375 1
  21138918.556 1 112920148.897 1
  24819585.026 1 130427816.786 1
  22197485.922 1 116648612.896 1
  23146099.477 1 121633567.715 1
 19 11  9 18  8 56.9990053  0 16R 9G 5G24R20R19G 2G31G25G15R21G12R 5
                                R16G20G29G21
  19083895.606 1 101906942.971 1
  22156739.350 1 116434464.445 1
  22442208.194 1 117934594.771 1
  20856566.904 1 111529516.783 1
  22750692.241 2 121700856.614 1
  23517398.754 1 123584689.754 1
  24564631.621 2 129088051.263 1
  20968924.457 1 110192484.993 1
  24850232.843 2 130588812.053 2
  22765688.143 1 121823700.941 1
  20687918.924 1 108715746.768 1
  23123562.988 2 123608752.480 1
  21139605.431 1 112923818.791 1
  24818937.762 1 130424416.122 1
  22197426.487 1 116648298.566 1
  23145571.364 1 121630792.135 1
 19 11  9 18  8 57.9990053  0 16R 9G 5G24R20R19G 2G31G25G15R21G12R 5
                                R16G20G29G21
  19083786.542 1 101906363.447 1
  22156775.716 1 116434654.717 1
  22442776.548 1 117937581.378 1
  20856771.385 1 111530608.328 1
  22751175.961 2 121703442.061 1
  23518041.794 1 123588069.913 1
  24564123.820 2 129085380.193 1
  20968505.756 1 110190284.295 1
  24850184.192 2 130588557.467 1
  22765457.137 1 121822465.327 1
  20687954.383 1 108715932.111 1
  23123091.169 1 123606230.682 1
  21140292.481 1 112927489.298 1
  24818290.918 1 130421015.453 1
  22197366.632 1 116647984.343 1
  23145043.250 1 121628017.010 1
 19 11  9 18  8 58.9990053  0 16R 9G 5G24R20R19G 2G31G25G15R21G12R 5
                                R16G20G29G21
  19083677.897 1 101905784.652 1
  22156812.431 1 116434845.397 1
  22443344.762 1 117940567.963 1
  20856975.448 1 111531699.968 1
  22751659.332 2 121706027.200 1
  23518685.114 1 123591449.964 1
  24563615.948 1 129082709.412 1
  20968087.021 1 110188083.753 1
  24850135.785 2 130588302.496 1
  22765225.887 1 121821229.918 1
  20687989.981 1 108716117.813 1
  23122619.420 1 123603708.765 1
  21140979.357 1 112931160.127 1
  24817643.619 1 130417614.480 1
  22197306.778 1 116647669.966 1
  23144515.172 1 121625242.041 1
 19 11  9 18  8 59.9990053  0 16R 9G 5G24R20R19G 2G31G25G15R21G12R 5
                                R16G20G29G21
  19083569.461 1 101905206.673 1
  22156848.937 1 116435036.503 1
  22443913.151 1 117943554.588 1
  20857180.069 1 111532791.756 1
  22752142.668 2 121708612.045 1
  23519327.910 1 123594829.991 1
  24563107.833 2 129080038.910 1
  20967668.181 1 110185883.446 1
  24850087.378 2 130588047.082 1
  22764995.125 1 121819994.808 1
  20688025.615 1 108716303.929 1
  23122146.903 2 123601186.780 1
  21141666.581 1 112934831.297 1
  24816996.460 1 130414213.301 1
  22197247.168 1 116647355.483 1
  23143987.338 1 121622467.317 1
 19 11  9 18  9  0.9990053  0 16R 9G 5G24R20R19G 2G31G25G15R21G12R 5
                                R16G20G29G21
  19083461.584 1 101904629.503 1
  22156885.617 1 116435228.083 1
  22444481.365 1 117946541.278 1
  20857384.377 1 111533883.690 1
  22752625.969 2 121711196.672 1
  23519970.916 1 123598210.000 1
  24562599.997 2 129077368.793 1
  20967249.515 1 110183683.354 1
  24850038.692 4 130587791.359 2
  22764764.084 1 121818760.021 1
  20688060.724 1 108716490.468 1
  23121674.770 2 123598664.630 1
  21142353.945 1 112938502.830 1
  24816349.232 1 130410811.891 1
  22197187.733 1 116647040.942 1
  23143459.469 1 121619692.821 1
 19 11  9 18  9  1.9990053  0 16R 9G 5G24R20R19G 2G31G25G15R21G12R 5
                                R16G20G29G21
  19083353.777 1 101904053.078 1
  22156922.088 1 116435420.085 1
  22445049.369 1 117949527.949 1
  20857588.614 1 111534975.725 1
  22753109.061 2 121713780.963 1
  23520614.026 1 123601589.916 1
  24562092.370 1 129074698.944 1
  20966830.675 1 110181483.444 1
  24849989.866 4 130587535.254 2
  22764533.636 1 121817525.508 1
  20688096.428 1 108716677.372 1
  23121202.742 2 123596142.363 1
  21143041.239 1 112942174.742 1
  24815701.829 1 130407410.218 1
  22197127.983 1 116646726.238 1
  23142931.320 1 121616918.501 1
 19 11  9 18  9  2.9990053  0 16R 9G 5G24R20R19G 2G31G25G15R21G12R 5
                                R16G20G29G21
  19083246.318 1 101903477.572 1
  22156958.803 1 116435612.636 1
  22445617.618 1 117952514.769 1
  20857792.921 1 111536068.010 1
  22753592.537 2 121716365.131 1
  23521257.276 1 123604969.907 1
  24561584.255 1 129072029.557 1
  20966412.149 1 110179283.864 1
  24849941.110 4 130587278.842 2
  22764302.805 1 121816291.447 1
  20688132.061 1 108716864.792 1
  23120730.783 1 123593620.132 1
  21143728.255 1 112945847.116 1
  24815054.600 1 130404008.448 1
  22197068.129 1 116646411.545 1
  23142403.137 1 121614144.510 1
 19 11  9 18  9  3.9990053  0 16R 9G 5G24R20R19G 2G31G25G15R21G12R 5
                                R16G20G29G21
  19083138.790 1 101902903.259 1
  22156995.833 1 116435806.004 1
  22446185.797 1 117955501.994 1
  20857997.298 1 111537160.841 1
  22754075.803 2 121718949.407 1
  23521900.840 1 123608350.256 1
  24561076.488 2 129069360.894 1
  20965993.972 1 110177084.883 1
  24849891.691 4 130587022.366 3
  22764072.706 1 121815058.038 1
  20688167.764 1 108717053.023 1
  23120258.789 1 123591098.228 1
  21144415.723 1 112949520.312 1
  24814407.197 1 130400606.835 1
  22197008.589 1 116646097.146 1
  23141875.303 1 121611371.167 1
 19 11  9 18  9  4.9990053  0 16R 9G 5G24R20R19G 2G31G25G15R21G12R 5
                                R16G20G29G21
  19083031.646 1 101902329.800 1
  22157032.374 1 116435999.884 1
  22446753.871 1 117958489.330 1
  20858201.675 1 111538253.871 1
  22754558.895 2 121721533.487 1
  23522544.230 1 123611730.617 1
  24560568.757 2 129066692.609 1
  20965576.144 1 110174886.184 1
  24849842.726 4 130586765.826 3
  22763842.573 1 121813825.023 1
  20688203.886 1 108717241.726 1
  23119786.482 1 123588576.265 1
  21145103.192 1 112953193.928 1
  24813759.934 1 130397205.053 1
  22196949.223 1 116645782.733 1
  23141347.608 1 121608598.085 1
 19 11  9 18  9  5.9990053  0 16R 9G 5G24R20R19G 2G31G25G15R21G12R 5
                                R16G20G29G21
  19082924.571 1 101901757.038 1
  22157069.787 1 116436194.184 1
  22447321.946 1 117961476.617 1
  20858406.017 1 111539346.973 1
  22755041.987 2 121724117.201 1
  23523187.898 1 123615110.888 1
  24560061.374 2 129064024.583 1
  20965157.688 1 110172687.635 1
  24849795.925 8 130586508.703 3
  22763612.370 1 121812592.263 1
  20688239.799 1 108717430.779 1
  23119314.977 1 123586054.155 1
  21145790.661 1 112956867.856 1
  24813112.321 1 130393802.952 1
  22196889.613 1 116645468.130 1
  23140819.774 1 121605825.179 1
 19 11  9 18  9  6.9990053  0 16R 9G 5G24R20R19G 2G31G25G15R21G12R 5
                                R16G20G29G21
  19082817.462 1 101901184.944 1
  22157106.537 1 116436388.799 1
  22447890.299 1 117964463.779 1
  20858610.324 1 111540440.079 1
  22755525.043 2 121726700.509 1
  23523831.183 1 123618490.992 1
  24559553.957 1 129061356.787 1
  20964739.441 1 110170489.178 1
  24849741.201 8 130586251.175 3
  22763381.992 1 121811359.670 1
  20688275.990 1 108717620.117 1
  23118843.298 1 123583531.815 1
  21146478.583 1 112960542.022 1
  24812464.883 1 130390400.539 1
  22196830.073 1 116645153.308 1
  23140291.905 1 121603052.349 1
 19 11  9 18  9  7.9990053  0 16R 9G 5G24R20R19G 2G31G25G15R21G12R 5
                                R16G20G29G21
  19082710.771 1 101900613.835 1
  22157143.950 1 116436584.056 1
  22448458.793 1 117967451.205 1
  20858814.247 1 111541533.538 1
  22756008.414 2 121729283.750 1
  23524474.293 1 123621871.244 1
  24559046.539 1 129058689.485 1
  20964321.299 1 110168291.140 1
  24849688.327 8 130585993.434 2
  22763151.998 1 121810127.601 1
  20688312.217 1 108717810.068 1
  23118371.758 2 123581009.646 1
  21147166.890 1 112964216.787 1
  24811817.724 1 130386998.085 1
  22196770.289 1 116644838.583 1
  23139764.385 1 121600279.957 1
 19 11  9 18  9  8.9990053  0 16R 9G 5G24R20R19G 2G31G25G15R21G12R 5
                                R16G20G29G21
  19082604.185 1 101900043.704 1
  22157181.468 1 116436779.923 1
  22449027.460 1 117970438.769 1
  20859018.310 1 111542627.279 1
  22756491.506 2 121731866.848 1
  23525117.194 1 123625251.628 1
  24558539.226 2 129056022.670 1
  20963903.122 1 110166093.468 1
  24849642.607 4 130585735.497 2
  22762921.795 1 121808895.994 1
  20688348.583 1 108718000.579 1
  23117900.532 1 123578487.509 1
  21147855.022 1 112967892.056 1
  24811169.903 1 130383595.562 1
  22196710.504 1 116644523.928 1
  23139236.970 1 121597507.940 1
 19 11  9 18  9  9.9990053  0 16R 9G 5G24R20R19G 2G31G25G15R21G12R 5
                                R16G20G29G21
  19082497.669 1 101899474.460 1
  22157218.916 1 116436976.320 1
  22449595.849 1 117973426.484 1
  20859222.583 1 111543721.224 1
  22756974.284 2 121734449.793 1
  23525760.793 1 123628632.044 1
  24558031.425 2 129053356.267 1
  20963485.294 1 110163896.101 1
  24849594.165 8 130585477.310 3
  22762691.871 1 121807664.786 1
  20688385.159 1 108718191.601 1
  23117428.748 1 123575965.363 1
  21148543.049 1 112971567.759 1
  24810522.500 1 130380192.898 1
  22196651.069 1 116644209.280 1
  23138709.519 1 121594736.257 1
 19 11  9 18  9 10.9990053  0 16R 9G 5G24R20R19G 2G31G25G15R21G12R 5
                                R16G20G29G21
  19082391.153 1 101898906.247 1
  22157256.365 1 116437173.405 1
  22450164.551 1 117976414.463 1
  20859426.960 1 111544815.575 1
  22757457.166 2 121737032.697 1
  23526404.113 1 123632012.682 1
  24557524.008 2 129050690.436 1
  20963067.326 1 110161699.196 1
  24849547.154 4 130585218.986 3
  22762462.051 1 121806434.098 1
  20688421.909 1 108718383.258 1
  23116956.580 1 123573443.349 1
  21149231.390 1 112975244.085 1
  24809874.852 1 130376790.231 1
  22196591.110 1 116643894.734 1
  23138182.348 1 121591965.041 1
 19 11  9 18  9 11.9990053  0 16R 9G 5G24R20R19G 2G31G25G15R21G12R 5
                                R16G20G29G21
  19082284.776 1 101898338.883 1
  22157293.952 1 116437371.014 1
  22450733.254 1 117979402.526 1
  20859631.685 1 111545910.154 1
  22757940.119 2 121739615.407 1
  23527047.293 1 123635393.336 1
  24557016.625 2 129048024.969 1
  20962649.393 1 110159502.567 1
  24849496.758 4 130584960.319 2
  22762232.616 1 121805203.828 1
  20688458.380 1 108718575.393 1
  23116484.761 1 123570921.373 1
  21149920.011 1 112978920.832 1
  24809227.240 1 130373387.427 1
  22196531.884 1 116643580.182 1
  23137655.038 1 121589194.137 1
 19 11  9 18  9 12.9990053  0 16R 9G 5G24R20R19G 2G31G25G15R21G12R 5
                                R16G20G29G21
  19082178.819 1 101897772.445 1
  22157331.889 1 116437569.194 1
  22451301.677 1 117982390.732 1
  20859836.097 1 111547005.009 1
  22758422.931 2 121742197.970 1
  23527690.403 1 123638774.095 1
  24556509.243 2 129045359.975 1
  20962231.461 1 110157306.288 1
  24849451.981 8 130584701.487 3
  22762003.145 1 121803973.987 1
  20688494.956 1 108718768.058 1
  23116012.768 1 123568399.399 1
  21150608.003 1 112982598.131 1
  24808579.522 1 130369984.510 1
  22196472.762 1 116643265.643 1
  23137127.727 1 121586423.576 1
 19 11  9 18  9 13.9990053  0 16R 9G 5G24R20R19G 2G31G25G15R21G12R 5
                                R16G20G29G21
  19082073.454 1 101897206.828 1
  22157369.826 1 116437767.857 1
  22451870.450 1 117985379.029 1
  20860040.474 1 111548100.058 1
  22758905.779 2 121744780.290 1
  23528333.653 1 123642154.836 1
  24556002.000 2 129042695.350 1
  20961813.493 1 110155110.256 1
  24849400.468 8 130584442.146 3
  22761773.640 1 121802744.473 1
  20688532.090 1 108718961.184 1
  23115541.158 1 123565877.369 1
  21151296.868 1 112986275.808 1
  24807931.980 1 130366581.411 1
  22196413.397 1 116642951.052 1
  23136600.661 1 121583653.259 1
 19 11  9 18  9 14.9990053  0 16R 9G 5G24R20R19G 2G31G25G15R21G12R 5
                                R16G20G29G21
  19081967.601 1 101896642.188 1
  22157407.728 1 116437967.137 1
  22452439.118 1 117988367.517 1
  20860245.514 1 111549195.374 1
  22759388.277 2 121747362.508 1
  23528976.903 1 123645535.702 1
  24555494.792 2 129040031.148 1
  20961395.770 1 110152914.612 1
  24849345.639 8 130584182.877 4
  22761544.030 1 121801515.443 1
  20688568.910 1 108719154.888 1
  23115069.409 1 123563355.394 1
  21151985.418 1 112989954.025 1
  24807284.437 1 130363178.230 1
  22196353.612 1 116642636.519 1
  23136073.769 1 121580883.360 1
 19 11  9 18  9 15.9990053  0 16R 9G 5G24R20R19G 2G31G25G15R21G12R 5
                                R16G20G29G21
  19081861.818 1 101896078.233 1
  22157445.769 1 116438166.753 1
  22453008.064 1 117991355.943 1
  20860450.624 1 111550290.746 1
  22759870.846 2 121749944.379 1
  23529620.607 1 123648916.417 1
  24554987.409 2 129037367.183 1
  20960977.802 1 110150719.063 1
  24849296.465 8 130583923.031 5
  22761314.455 1 121800286.614 1
  20688605.904 1 108719348.892 1
  23114598.078 1 123560833.227 1
  21152674.318 1 112993632.498 1
  24806636.860 1 130359774.732 1
  22196293.793 1 116642321.801 1
  23135546.772 1 121578113.563 1
 19 11  9 18  9 16.9990053  0 16R 9G 5G24R20R19G 2G31G25G15R21G12R 5
                                R16G20G29G21
  19081756.593 1 101895515.070 1
  22157483.462 1 116438366.813 1
  22453577.081 1 117994344.344 1
  20860655.664 1 111551386.233 1
  22760353.449 2 121752525.921 1
  23530264.206 1 123652297.074 1
  24554480.794 2 129034703.612 1
  20960559.869 1 110148523.737 1
  24849252.001 9                
  22761085.194 1 121799058.061 1
  20688642.829 1 108719543.292 1
  23114126.259 1 123558310.936 1
  21153363.253 1 112997311.341 1
  24805989.073 1 130356371.000 1
  22196234.043 1 116642006.935 1
  23135019.461 1 121575343.955 1
 19 11  9 18  9 17.9990053  0 16R 9G 5G24R20R19G 2G31G25G15R21G12R 5
                                R16G20G29G21
  19081651.333 1 101894952.931 1
  22157521.119 1 116438567.550 1
  22454145.923 1 117997333.023 1
  20860860.635 1 111552482.068 1
  22760835.982 2 121755107.412 1
  23530907.491 1 123655677.939 1
  24553974.249 2 129032040.549 1
  20960142.146 1 110146328.857 1
  24849199.546 9                
  22760855.933 1 121797830.081 1
  20688679.823 1 108719738.339 1
  23113653.987 1 123555788.818 1
  21154052.676 1 113000990.779 1
  24805341.565 1 130352967.300 1
  22196174.434 1 116641692.215 1
  23134492.395 1 121572574.831 1
 19 11  9 18  9 18.9990053  0 16R 9G 5G24R20R19G 2G31G25G15R21G12R 5
                                R16G20G29G21
  19081546.562 1 101894391.681 1
  22157559.580 1 116438768.842 1
  22454714.486 1 118000321.836 1
  20861065.430 1 111553578.152 1
  22761318.551 2 121757688.774 1
  23531550.845 1 123659058.866 1
  24553467.809 1 129029377.915 1
  20959724.702 1 110144134.311 1
  24849151.279 9                
  22760626.568 1 121796602.516 1
  20688716.853 1 108719933.900 1
  23113182.028 1 123553266.722 1
  21154741.366 1 113004670.740 1
  24804693.987 1 130349563.432 1
  22196114.440 1 116641377.514 1
  23133965.224 1 121569806.038 1
 19 11  9 18  9 19.9990053  0 16R 9G 5G24R20R19G 2G31G25G15R21G12R 5
                                R16G20G29G21
  19081441.756 1 101893831.116 1
  22157597.691 1 116438970.460 1
  22455282.875 1 118003310.535 1
  20861269.982 1 111554674.230 1
  22761800.979 2 121760269.705 1
  23532193.886 1 123662439.636 1
  24552961.055 2 129026715.524 1
  20959307.223 1 110141939.850 1
  24849108.630 9                
  22760397.446 1 121795375.158 1
  20688754.056 1 108720129.758 1
  23112710.139 1 123550744.339 1
  21155430.754 1 113008351.041 1
  24804046.305 1 130346159.232 1
  22196054.516 1 116641062.560 1
  23133438.192 1 121567037.337 1
 19 11  9 18  9 20.9990053  0 16R 9G 5G24R20R19G 2G31G25G15R21G12R 5
                                R16G20G29G21
  19081337.195 1 101893271.513 1
  22157635.802 1 116439172.714 1
  22455851.089 1 118006299.518 1
  20861474.743 1 111555770.613 1
  22762283.164 2 121762850.582 1
  23532837.275 1 123665820.555 1
  24552454.719 2 129024053.594 1
  20958889.430 1 110139745.806 1
  24849066.575 9                
  22760167.732 1 121794148.260 1
  20688791.121 1 108720326.219 1
  23112238.425 1 123548222.077 1
  21156119.654 1 113012031.775 1
  24803398.343 1 130342755.028 1
  22195993.963 1 116640747.726 1
  23132911.301 1 121564269.061 1
 19 11  9 18  9 21.9990053  0 16R 9G 5G24R20R19G 2G31G25G15R21G12R 5
                                R16G20G29G21
  19081232.738 1 101892712.782 1
  22157674.437 1 116439375.509 1
  22456420.105 1 118009288.563 1
  20861679.818 1 111556867.209 1
  22762765.627 2 121765431.231 1
  23533480.141 1 123669201.525 1
  24551948.558 2 129021392.063 1
  20958472.021 1 110137552.038 1
  24849021.100 8 130582487.03135
  22759938.331 1 121792921.801 1
  20688828.394 1 108720523.168 1
  23111766.117 2 123545699.850 1
  21156809.008 1 113015712.955 1
  24802750.766 1 130339350.636 1
  22195934.144 1 116640432.878 1
  23132384.513 1 121561501.093 1
 19 11  9 18  9 22.9990053  0 16R 9G 5G24R20R19G 2G31G25G15R21G12R 5
                                R16G20G29G21
  19081128.211 1 101892155.036 1
  22157713.211 1 116439578.913 1
  22456988.878 1 118012277.792 1
  20861884.788 1 111557964.129 1
  22763247.777 2 121768011.822 1
  23534123.461 1 123672582.628 1
  24551442.397 1 129018731.104 1
  20958054.856 1 110135358.679 1
  24848975.834 8 130582225.25725
  22759709.105 1 121791695.709 1
  20688866.157 1 108720720.688 1
  23111294.403 1 123543177.745 1
  21157497.977 1 113019394.647 1
  24802102.909 1 130335946.200 1
  22195874.080 1 116640118.061 1
  23131857.587 1 121558733.483 1
 19 11  9 18  9 23.9990053  0 16R 9G 5G24R20R19G 2G31G25G15R21G12R 5
                                R16G20G29G21
  19081024.347 1 101891598.264 1
  22157751.811 1 116439782.937 1
  22457558.104 1 118015267.198 1
  20862090.142 1 111559061.382 1
  22763730.136 2 121770592.300 1
  23534766.781 1 123675963.828 1
  24550936.201 1 129016070.575 1
  20957637.551 1 110133165.699 1
  24848930.464 8 130581963.36025
  22759480.193 1 121790470.223 1
  20688903.884 1 108720918.801 1
  23110822.584 1 123540655.794 1
  21158187.226 1 113023076.899 1
  24801454.948 1 130332541.679 1
  22195813.947 1 116639803.350 1
  23131330.799 1 121555966.308 1
 19 11  9 18  9 24.9990053  0 16R 9G 5G24R20R19G 2G31G25G15R21G12R 5
                                R16G20G29G21
  19080920.483 1 101891042.441 1
  22157790.690 1 116439987.602 1
  22458127.539 1 118018256.874 1
  20862295.636 1 111560158.954 1
  22764212.250 2 121773172.701 1
  23535409.961 1 123679345.204 1
  24550429.971 2 129013410.595 1
  20957220.037 1 110130973.138 1
  24848881.987 8 130581701.16825
  22759251.386 1 121789245.260 1
  20688941.611 1 108721117.516 1
  23110351.079 1 123538133.880 1
  21158876.579 1 113026759.790 1
  24800807.091 1 130329137.149 1
  22195753.709 1 116639488.700 1
  23130804.012 1 121553199.550 1
 19 11  9 18  9 25.9990053  0 16R 9G 5G24R20R19G 2G31G25G15R21G12R 5
                                R16G20G29G21
  19080816.585 1 101890487.454 1
  22157829.988 1 116440192.753 1
  22458696.626 1 118021246.637 1
  20862500.955 1 111561256.687 1
  22764694.260 2 121775752.878 1
  23536053.211 1 123682726.552 1
  24549924.019 2 129010750.949 1
  20956803.082 1 110128780.805 1
  24848831.207 9                
  22759022.439 1 121788020.534 1
  20688979.199 1 108721316.687 1
  23109879.051 1 123535611.781 1
  21159565.933 1 113030443.038 1
  24800158.850 1 130325732.390 1
  22195693.296 1 116639174.009 1
  23130277.400 1 121550433.012 1
 19 11  9 18  9 26.9990053  0 16R 9G 5G24R20R19G 2G31G25G15R21G12R 5
                                R16G20G29G21
  19080712.791 1 101889933.255 1
  22157869.181 1 116440398.349 1
  22459265.643 1 118024236.437 1
  20862705.890 1 111562354.551 1
  22765176.270 2 121778332.728 1
  23536696.251 1 123686107.878 1
  24549417.858 2 129008091.689 1
  20956386.057 1 110126588.699 1
  24848781.474 9                
  22758793.352 1 121786796.168 1
  20689017.450 1 108721516.241 1
  23109407.337 2 123533089.608 1
  21160255.635 1 113034126.682 1
  24799510.889 1 130322327.446 1
  22195633.267 1 116638859.191 1
  23129750.612 1 121547666.724 1
 19 11  9 18  9 27.9990053  0 16R 9G 5G24R20R19G 2G31G25G15R21G12R 5
                                R16G20G29G21
  19080609.346 1 101889379.944 1
  22157908.375 1 116440604.470 1
  22459834.555 1 118027226.336 1
  20862911.314 1 111563452.694 1
  22765658.559 2 121780912.422 1
  23537339.397 1 123689489.245 1
  24548911.697 2 129005432.758 1
  20955968.752 1 110124396.906 1
  24848732.788 9                
  22758564.824 1 121785572.202 1
  20689055.457 1 108721716.301 1
  23108935.657 2 123530567.556 1
  21160945.093 1 113037810.778 1
  24798862.892 1 130318922.378 1
  22195573.064 1 116638544.430 1
  23129224.244 1 121544900.764 1
 19 11  9 18  9 28.9990053  0 16R 9G 5G24R20R19G 2G31G25G15R21G12R 5
                                R16G20G29G21
  19080506.006 1 101888827.548 1
  22157947.358 1 116440811.179 1
  22460403.397 1 118030216.354 1
  20863116.738 1 111564551.063 1
  22766140.744 2 121783492.022 1
  23537982.472 1 123692870.700 1
  24548405.466 2 129002774.345 1
  20955551.797 1 110122205.458 1
  24848685.323 9                
  22758336.122 1 121784348.627 1
  20689093.708 1 108721916.911 1
  23108463.838 1 123528045.535 1
  21161635.040 1 113041495.383 1
  24798215.070 1 130315517.174 1
  22195513.000 1 116638229.618 1
  23128697.911 1 121542135.143 1
 19 11  9 18  9 29.9990053  0 15R 9G 5G24R20R19G 2G31G25R21G12R 5R16
                                G20G29G21
  19080402.247 1 101888275.961 1
  22157986.761 1 116441018.363 1
  22460972.169 1 118033206.462 1
  20863322.267 1 111565649.601 1
  22766623.103 2 121786071.360 1
  23538626.141 1 123696252.152 1
  24547899.584 2 129000116.243 1
  20955135.016 1 110120014.255 1
  22758107.629 1 121783125.436 1
  20689132.063 1 108722117.961 1
  23107991.880 1 123525523.499 1
  21162325.091 1 113045180.343 1
  24797567.109 1 130312111.806 1
  22195453.181 1 116637914.778 1
  23128171.647 1 121539369.790 1
 19 11  9 18  9 30.9990053  0 16R 9G 5G24R20R19G 2G31G25G15R21G12R 5
                                R16G20G29G21
  19080298.907 1 101887725.112 1
  22158025.989 1 116441225.920 1
  22461541.011 1 118036196.537 1
  20863527.865 1 111566748.199 1
  22767105.182 2 121788650.347 1
  23539269.810 1 123699633.477 1
  24547393.598 2 128997458.445 1
  20954717.641 1 110117823.229 1
  24848584.984 9                
  22757878.717 1 121781902.466 1
  20689170.314 1 108722319.349 1
  23107520.759 1 123523001.255 1
  21163015.143 1 113048865.455 1
  24796918.903 1 130308706.131 1
  22195393.362 1 116637599.744 1
  23127645.523 1 121536604.577 1
 19 11  9 18  9 31.9990053  0 16R 9G 5G24R20R19G 2G31G25G15R21G12R 5
                                R16G20G29G21
  19080195.915 1 101887175.173 1
  22158065.357 1 116441434.047 1
  22462109.400 1 118039186.764 1
  20863733.813 1 111567847.010 1
  22767587.297 2 121791229.155 1
  23539913.513 1 123703014.858 1
  24546887.297 2 128994801.079 1
  20954300.930 1 110115632.478 1
  24848524.851 9               6
  22757649.909 1 121780679.935 1
  20689208.390 1 108722521.246 1
  23107049.254 1 123520478.882 1
  21163705.124 1 113052551.206 1
  24796270.837 1 130305300.319 1
  22195333.717 1 116637284.716 1
  23127119.538 1 121533839.712 1
 19 11  9 18  9 32.9990053  0 16R 9G 5G24R20R19G 2G31G25G15R21G12R 5
                                R16G20G29G21
  19080092.645 1 101886626.051 1
  22158105.038 1 116441642.583 1
  22462678.870 1 118042177.090 1
  20863939.516 1 111568945.962 1
  22768069.481 2 121793807.675 1
  23540557.182 1 123706396.208 1
  24546381.834 2 128992143.926 1
  20953884.219 1 110113441.967 1
  24848461.995 9 130579614.43633
  22757421.102 1 121779457.584 1
  20689247.200 1 108722723.548 1
  23106577.574 1 123517956.603 1
  21164395.245 1 113056237.374 1
  24795622.806 1 130301894.271 1
  22195273.514 1 116636969.569 1
  23126593.728 1 121531075.041 1
 19 11  9 18  9 33.9990053  0 16R 9G 5G24R20R19G 2G31G25G15R21G12R 5
                                R16G20G29G21
  19079989.165 1 101886077.710 1
  22158144.546 1 116441851.626 1
  22463248.585 1 118045167.449 1
  20864145.533 1 111570045.105 1
  22768551.317 2 121796385.955 1
  23541200.362 1 123709777.543 1
  24545876.650 2 128989487.262 1
  20953467.508 1 110111251.699 1
  24848415.159 8 130579349.32524
  22757192.330 1 121778235.691 1
  20689285.555 1 108722926.323 1
  23106106.244 1 123515434.163 1
  21165085.646 1 113059923.949 1
  24794974.705 1 130298488.095 1
  22195213.974 1 116636654.407 1
  23126067.918 1 121528310.639 1
 19 11  9 18  9 34.9990053  0 16R 9G 5G24R20R19G 2G31G25G15R21G12R 5
                                R16G20G29G21
  19079886.732 1 101885530.377 1
  22158184.751 1 116442061.281 1
  22463823.011 9                
  20864350.957 1 111571144.530 1
  22769033.117 2 121798964.172 1
  23541844.240 1 123713159.030 1
  24545371.397 2 128986831.172 1
  20953050.657 1 110109061.838 1
  24848361.307 8 130579084.09923
  22756963.488 1 121777014.251 1
  20689324.364 1 108723129.696 1
  23105634.774 2 123512911.753 1
  21165776.186 2 113063610.971 1
  24794326.359 1 130295081.750 1
  22195154.294 1 116636339.324 1
  23125541.829 1 121525546.668 1
 19 11  9 18  9 35.9990053  0 16R 9G 5G24R20R19G 2G31G25G15R21G12R 5
                                R16G20G29G21
  19079784.125 1 101884983.993 1
  22158224.991 1 116442271.580 1
  22464383.303 9 118051130.66234
  20864556.416 1 111572244.288 1
  22769514.813 4 121801542.269 2
  23542487.769 1 123716540.640 1
  24544865.899 4 128984175.438 2
  20952633.806 1 110106872.399 1
  24848309.410 8 130578818.68123
  22756735.169 2 121775793.311 1
  20689362.964 1 108723333.668 1
  23105163.409 2 123510389.614 1
  21166466.551 1 113067298.500 1
  24793678.328 1 130291675.444 1
  22195094.963 1 116636024.261 1
  23125016.019 1 121522783.024 1
 19 11  9 18  9 36.9990053  0 16R 9G 5G24R20R19G 2G31G25G15R21G12R 5
                                R16G20G29G21
  19079681.623 1 101884438.478 1
  22158265.057 1 116442482.447 1
  22464954.169 8 118054121.34121
  20864762.189 1 111573344.268 1
  22769996.579 2 121804120.127 1
  23543131.822 1 123719922.329 1
  24544360.610 2 128981520.148 1
  20952216.885 1 110104683.219 1
  24848253.814 4 130578552.90723
  22756506.885 1 121774572.755 1
  20689401.669 1 108723538.106 1
  23104691.729 1 123507867.416 1
  21167156.847 1 113070986.560 1
  24793030.227 1 130288268.989 1
  22195035.562 1 116635709.234 1
  23124490.175 1 121520019.728 1
 19 11  9 18  9 37.9990053  0 16R 9G 5G24R20R19G 2G31G25G15R21G12R 5
                                R16G20G29G21
  19079579.888 1 101883893.781 1
  22158305.262 1 116442693.749 1
  22465522.174 4 118057112.17121
  20864967.927 1 111574444.436 1
  22770478.449 2 121806697.797 1
  23543775.665 1 123723303.988 1
  24543855.427 2 128978865.145 1
  20951800.593 1 110102494.286 1
  24848200.172 8 130578286.82923
  22756278.218 1 121773352.511 1
  20689440.932 1 108723742.974 1
  23104220.190 1 123505345.100 1
  21167846.968 1 113074675.009 1
  24792382.230 1 130284862.310 1
  22194975.638 1 116635394.075 1
  23123964.434 1 121517256.686 1
 19 11  9 18  9 38.9990053  0 16R 9G 5G24R20R19G 2G31G25G15R21G12R 5
                                R16G20G29G21
  19079477.839 1 101883350.039 1
  22158345.468 1 116442905.680 1
  22466090.946 2 118060103.22621
  20865174.014 1 111575544.867 1
  22770960.215 2 121809275.322 1
  23544419.299 1 123726685.720 1
  24543350.417 2 128976210.784 1
  20951383.847 1 110100305.746 1
  24848145.692 8 130578020.59323
  22756050.073 1 121772132.720 1
  20689479.881 1 108723948.433 1
  23103748.266 1 123502822.808 1
  21168537.613 1 113078363.980 1
  24791734.374 1 130281455.588 1
  22194915.540 1 116635079.021 1
  23123438.589 1 121514494.030 1
 19 11  9 18  9 39.9990053  0 16R 9G 5G24R20R19G 2G31G25G15R21G12R 5
                                R16G20G29G21
  19079375.965 1 101882807.202 1
  22158385.812 1 116443118.161 1
  22466661.429 2 118063094.31721
  20865379.892 1 111576645.514 1
  22771441.736 2 121811852.670 1
  23545063.038 1 123730067.528 1
  24542845.234 2 128973556.728 1
  20950967.520 1 110098117.488 1
  24848090.410 8 130577754.01524
  22755821.545 1 121770913.380 1
  20689519.109 1 108724154.369 1
  23103277.075 1 123500300.570 1
  21169228.432 1 113082053.401 1
  24791086.168 1 130278048.749 1
  22194855.267 1 116634763.922 1
  23122913.024 1 121511731.693 1
 19 11  9 18  9 40.9990053  0 16R 9G 5G24R20R19G 2G31G25G15R21G12R 5
                                R16G20G29G21
  19079274.090 1 101882265.397 1
  22158426.541 1 116443331.294 1
  22467232.400 2 118066085.69121
  20865585.909 1 111577746.527 1
  22771923.502 2 121814429.954 1
  23545706.602 1 123733449.523 1
  24542340.573 2 128970903.244 1
  20950551.402 1 110095929.678 1
  24848049.821 8 130577487.27823
  22755593.646 1 121769694.533 1
  20689558.372 1 108724360.946 1
  23102805.082 1 123497778.467 1
  21169919.496 1 113085743.436 1
  24790437.718 2 130274641.884 1
  22194795.413 1 116634448.947 1
  23122387.458 1 121508969.786 1
 19 11  9 18  9 41.9990053  0 16R 9G 5G24R20R19G 2G31G25G15R21G12R 5
                                R16G20G29G21
  19079172.321 1 101881724.483 1
  22158467.375 1 116443545.003 1
  22467802.289 2 118069077.22021
  20865791.787 1 111578847.772 1
  22772405.512 2 121817007.119 1
  23546349.991 1 123736831.568 1
  24541835.564 2 128968250.229 1
  20950135.075 1 110093742.206 1
  24847997.331 8 130577220.35723
  22755365.641 1 121768476.061 1
  20689597.774 1 108724568.053 1
  23102333.088 1 123495256.431 1
  21170610.350 1 113089433.960 1
  24789789.093 1 130271234.854 1
  22194735.663 1 116634134.000 1
  23121862.172 1 121506208.223 1
 19 11  9 18  9 42.9990053  0 16R 9G 5G24R20R19G 2G31G25G15R21G12R 5
                                R16G20G29G21
  19079070.935 1 101881184.404 1
  22158508.069 1 116443759.161 1
  22468371.341 1 118072068.31711
  20865997.665 1 111579949.183 1
  22772887.138 2 121819583.988 1
  23546993.730 1 123740213.581 1
  24541330.729 2 128965597.493 1
  20949719.096 1 110091554.977 1
  24847947.318 4 130576952.55913
  22755137.706 1 121767258.082 1
  20689637.247 1 108724775.581 1
  23101861.513 1 123492734.306 1
  21171301.483 1 113093124.903 1
  24789140.852 1 130267827.638 1
  22194675.320 1 116633818.951 1
  23121336.397 1 121503446.926 1
 19 11  9 18  9 43.9990053  0 16R 9G 5G24R20R19G 2G31G25G15R21G12R 5
                                R16G20G29G21
  19078969.619 1 101880645.120 1
  22158549.251 1 116443973.827 1
  22468940.497 1 118075059.895 1
  20866203.996 1 111581050.722 1
  22773368.415 2 121822160.656 1
  23547637.712 1 123743595.626 1
  24540826.278 1 128962945.153 1
  20949302.874 1 110089367.998 1
  24847902.262 4 130576684.937 3
  22754909.457 1 121766040.293 1
  20689677.068 1 108724983.549 1
  23101389.380 2 123490212.095 1
  21171992.337 1 113096816.246 1
  24788492.682 2 130264420.292 1
  22194615.257 1 116633503.833 1
  23120810.761 1 121500685.845 1
 19 11  9 18  9 44.9990053  0 16R 9G 5G24R20R19G 2G31G25G15R21G12R 5
                                R16G20G29G21
  19078868.512 1 101880106.786 1
  22158590.399 1 116444189.054 1
  22469510.002 1 118078051.697 1
  20866409.769 1 111582152.592 1
  22773850.110 2 121824737.128 1
  23548281.521 1 123746977.771 1
  24540321.897 1 128960293.242 1
  20948886.965 1 110087181.375 1
  24847847.224 4 130576417.036 4
  22754681.802 2 121764823.027 1
  20689716.576 1 108725192.061 1
  23100917.317 2 123487689.986 1
  21172683.156 1 113100508.099 1
  24787844.127 2 130261012.804 1
  22194555.298 1 116633188.754 1
  23120285.056 1 121497925.134 1
 19 11  9 18  9 45.9990053  0 16R 9G 5G24R20R19G 2G31G25G15R21G12R 5
                                R16G20G29G21
  19078767.825 1 101879569.332 1
  22158631.477 1 116444404.859 1
  22470079.717 1 118081043.551 1
  20866615.926 1 111583254.681 1
  22774331.667 2 121827313.502 1
  23548924.526 1 123750359.960 1
  24539817.342 2 128957641.824 1
  20948471.266 1 110084995.080 1
  24847794.420 4 130576149.033 4
  22754454.251 2 121763606.072 1
  20689756.537 1 108725401.110 1
  23100445.428 2 123485167.832 1
  21173374.115 1 113104200.368 1
  24787195.886 2 130257605.240 1
  22194495.304 1 116632873.695 1
  23119759.909 1 121495164.770 1
 19 11  9 18  9 46.9990053  0 16R 9G 5G24R20R19G 2G31G25G15R21G12R 5
                                R16G20G29G21
  19078667.381 1 101879032.691 1
  22158672.450 1 116444621.135 1
  22470648.873 1 118084035.476 1
  20866822.257 1 111584356.922 1
  22774813.258 2 121829889.573 1
  23549567.916 1 123753742.133 1
  24539312.926 1 128954990.720 1
  20948055.288 1 110082809.046 1
  24847742.069 4 130575880.585 4
  22754227.154 1 121762389.603 1
  20689796.149 1 108725610.599 1
  23099973.644 2 123482645.721 1
  21174065.318 1 113107892.978 1
  24786547.331 2 130254197.526 1
  22194435.345 1 116632558.570 1
  23119234.553 1 121492404.665 1
 19 11  9 18  9 47.9990053  0 16R 9G 5G24R20R19G 2G31G25G15R21G12R 5
                                R16G20G29G21
  19078567.461 1 101878496.933 1
  22158713.528 1 116444837.910 1
  22471218.902 1 118087027.517 1
  20867028.414 1 111585459.355 1
  22775294.570 2 121832465.416 1
  23550211.689 1 123757124.308 1
  24538808.021 2 128952340.023 1
  20947639.170 1 110080623.267 1
  24847698.304 8 130575611.818 3
  22754000.022 1 121761173.410 1
  20689836.110 1 108725820.547 1
  23099501.616 2 123480123.473 1
  21174756.591 1 113111586.063 1
  24785898.637 2 130250789.583 1
  22194374.967 1 116632243.377 1
  23118709.301 1 121489644.834 1
 19 11  9 18  9 48.9990053  0 16R 9G 5G24R20R19G 2G31G25G15R21G12R 5
                                R16G20G29G21
  19078467.506 1 101877961.981 1
  22158754.396 1 116445055.159 1
  22471788.477 1 118090019.582 1
  20867234.571 1 111586561.967 1
  22775776.231 2 121835041.032 1
  23550855.393 1 123760506.492 1
  24538303.361 2 128949689.706 1
  20947223.366 1 110078437.762 1
  24847647.908 8 130575342.710 3
  22753773.169 1 121759957.552 1
  20689876.071 1 108726030.954 1
  23099029.553 2 123477601.218 1
  21175448.213 1 113115279.574 1
  24785249.803 2 130247381.458 1
  22194314.554 1 116631928.134 1
  23118184.050 1 121486885.266 1
 19 11  9 18  9 49.9990053  0 16R 9G 5G24R20R19G 2G31G25G15R21G12R 5
                                R16G20G29G21
  19078367.831 1 101877427.901 1
  22158795.823 1 116445272.950 1
  22472358.052 1 118093011.742 1
  20867440.658 1 111587664.804 1
  22776257.577 2 121837616.508 1
  23551499.166 1 123763888.710 1
  24537799.259 1 128947039.789 1
  20946807.702 1 110076252.553 1
  24847593.358 8 130575073.354 3
  22753546.246 1 121758742.127 1
  20689916.206 1 108726241.866 1
  23098557.489 2 123475078.948 1
  21176139.556 1 113118973.546 1
  24784601.248 2 130243973.177 1
  22194254.630 1 116631612.869 1
  23117659.217 1 121484126.005 1
 19 11  9 18  9 50.9990053  0 16R 9G 5G24R20R19G 2G31G25G15R21G12R 5
                                R16G20G29G21
  19078268.085 1 101876894.906 1
  22158837.180 1 116445491.472 1
  22472927.662 1 118096004.233 1
  20867646.710 1 111588768.056 1
  22776738.715 2 121840191.962 1
  23552142.696 1 123767271.192 1
  24537295.366 2 128944390.442 1
  20946392.282 1 110074067.825 1
  24847538.983 8 130574803.997 3
  22753319.254 1 121757527.254 1
  20689956.656 1 108726453.425 1
  23098085.635 2 123472556.879 1
  21176830.899 1 113122668.159 1
  24783952.833 2 130240564.954 1
  22194194.706 1 116631297.739 1
  23117134.035 1 121481367.232 1
 19 11  9 18  9 51.9990053  0 16R 9G 5G24R20R19G 2G31G25G15R21G12R 5
                                R16G20G29G21
  19078168.479 1 101876362.693 1
  22158878.956 1 116445710.388 1
  22473497.168 1 118098996.690 1
  20867853.076 1 111589871.401 1
  22777220.131 2 121842767.101 1
  23552786.364 1 123770653.582 1
  24536791.474 2 128941741.453 1
  20945976.792 1 110071883.300 1
  24847485.376 8 130574534.081 3
  22753092.296 1 121756312.694 1
  20689996.931 1 108726665.425 1
  23097613.537 2 123470034.661 1
  21177522.695 1 113126363.104 1
  24783304.348 2 130237156.519 1
  22194134.398 1 116630982.543 1
  23116609.307 1 121478608.662 1
 19 11  9 18  9 52.9990053  0 16R 9G 5G24R20R19G 2G31G25G15R21G12R 5
                                R16G20G29G21
  19078068.908 1 101875831.360 1
  22158920.452 1 116445929.857 1
  22474066.882 1 118101989.282 1
  20868059.757 1 111590974.955 1
  22777701.373 2 121845342.039 1
  23553430.382 1 123774036.014 1
  24536287.721 2 128939092.844 1
  20945561.268 1 110069699.087 1
  24847430.757 8 130574264.010 4
  22752865.339 1 121755098.493 1
  20690037.241 1 108726877.899 1
  23097141.648 1 123467512.489 1
  21178214.596 1 113130058.480 1
  24782655.898 2 130233747.918 1
  22194074.230 1 116630667.302 1
  23116084.789 1 121475850.419 1
 19 11  9 18  9 53.9990053  0 16R 9G 5G24R20R19G 2G31G25G15R21G12R 5
                                R16G20G29G21
  19077969.407 1 101875300.915 1
  22158962.403 1 116446149.892 1
  22474636.318 1 118104981.984 1
  20868266.367 1 111592078.736 1
  22778182.860 2 121847916.820 1
  23554074.435 1 123777418.500 1
  24535784.142 2 128936444.682 1
  20945145.638 1 110067515.179 1
  24847378.162 8 130573993.693 4
  22752638.800 1 121753884.703 1
  20690077.935 1 108727090.867 1
  23096669.725 1 123464990.314 1
  21178906.183 1 113133754.319 1
  24782007.238 1 130230339.189 1
  22194014.027 1 116630352.047 1
  23115560.095 1 121473092.498 1
 19 11  9 18  9 54.9990053  0 16R 9G 5G24R20R19G 2G31G25G15R21G12R 5
                                R16G20G29G21
  19077870.220 1 101874771.127 1
  22159004.283 1 116446370.222 1
  22475205.753 1 118107974.593 1
  20868473.292 1 111593182.525 1
  22778664.102 2 121850491.180 1
  23554718.103 1 123780800.803 1
  24535280.634 1 128933796.709 1
  20944730.079 1 110065331.393 1
  24847334.048 8 130573722.851 3
  22752412.087 1 121752671.101 1
  20690118.419 1 108727304.140 1
  23096198.010 1 123462467.908 1
  21179597.735 1 113137450.399 1
  24781358.684 1 130226930.085 1
  22193954.103 1 116630036.579 1
  23115035.507 1 121470334.675 1
 19 11  9 18  9 55.9990053  0 16R 9G 5G24R20R19G 2G31G25G15R21G12R 5
                                R16G20G29G21
  19077771.382 1 101874242.265 1
  22159046.268 1 116446591.135 1
  22475775.259 1 118110967.357 1
  20868679.763 1 111594286.572 1
  22779145.135 2 121853065.447 1
  23555361.423 1 123784183.193 1
  24534777.056 1 128931149.158 1
  20944314.170 1 110063147.921 1
  24847280.860 8 130573451.721 3
  22752185.339 1 121751457.983 1
  20690159.253 1 108727517.933 1
  23095726.122 1 123459945.432 1
  21180289.288 1 113141146.941 1
  24780709.675 1 130223520.981 1
  22193894.318 1 116629721.153 1
  23114510.884 1 121467577.240 1
 19 11  9 18  9 56.9990053  0 16R 9G 5G24R20R19G 2G31G25G15R21G12R 5
                                R16G20G29G21
  19077672.509 1 101873714.300 1
  22159088.637 1 116446812.678 1
  22476344.799 2 118113960.336 1
  20868885.850 1 111595390.849 1
  22779626.098 2 121855639.498 1
  23556005.022 1 123787565.688 1
  24534273.652 2 128928502.069 1
  20943898.925 1 110060964.798 1
  24847228.335 8 130573180.397 3
  22751958.905 1 121750245.121 1
  20690199.842 1 108727732.268 1
  23095254.268 2 123457423.138 1
  21180981.119 1 113144844.058 1
  24780060.632 1 130220111.699 1
  22193833.906 1 116629405.678 1
  23113985.876 1 121464820.105 1
 19 11  9 18  9 57.9990053  0 16R 9G 5G24R20R19G 2G31G25G15R21G12R 5
                                R16G20G29G21
  19077573.916 1 101873187.220 1
  22159130.692 1 116447034.555 1
  22476914.060 1 118116953.298 1
  20869092.391 1 111596495.287 1
  22780107.270 2 121858213.251 1
  23556648.551 1 123790948.083 1
  24533770.597 1 128925855.262 1
  20943483.575 1 110058781.892 1
  24847175.914 8 130572908.652 3
  22751732.541 1 121749032.668 1
  20690241.304 1 108727946.996 1
  23094782.379 4 123454900.768 2
  21181673.299 1 113148541.523 1
  24779411.798 1 130216702.102 1
  22193774.016 1 116629090.172 1
  23113461.358 1 121462063.160 1
 19 11  9 18  9 58.9990053  0 16R 9G 5G24R20R19G 2G31G25G15R21G12R 5
                                R16G20G29G21
  19077475.496 1 101872660.987 1
  22159172.748 1 116447257.051 1
  22477483.565 1 118119946.293 1
  20869299.246 1 111597599.948 1
  22780588.512 2 121860786.920 1
  23557292.255 1 123794330.562 1
  24533266.844 1 128923209.056 1
  20943068.120 1 110056599.316 1
  24847122.447 8 130572636.708 3
  22751506.386 1 121747820.660 1
  20690282.277 1 108728162.258 1
  23094310.106 2 123452378.379 1
  21182365.270 1 113152239.494 1
  24778763.417 2 130213292.523 1
  22193713.674 1 116628774.637 1
  23112937.014 1 121459306.617 1
 19 11  9 18  9 59.9990053  0 16R 9G 5G24R20R19G 2G31G25G15R21G12R 5
                                R16G20G29G21
  19077376.763 1 101872135.541 1
  22159215.152 1 116447479.971 1
  22478053.001 1 118122939.534 1
  20869505.786 1 111598704.795 1
  22781069.545 2 121863360.329 1
  23557935.819 1 123797713.036 1
  24532763.300 2 128920563.005 1
  20942653.224 1 110054416.964 1
  24847066.082 8 130572364.373 4
  22751280.126 1 121746609.005 1
  20690323.599 1 108728377.955 1
  23093837.834 2 123449855.939 1
  21183057.032 1 113155937.745 1
  24778114.583 2 130209882.710 1
  22193653.575 1 116628459.006 1
  23112412.495 1 121456550.257 1
 19 11  9 18 10  0.9990053  0 16R 9G 5G24R20R19G 2G31G25G15R21G12R 5
                                R16G20G29G21
  19077278.797 1 101871611.022 1
  22159257.695 1 116447703.446 1
  22478622.401 1 118125932.726 1
  20869712.921 1 111599809.844 1
  22781550.717 2 121865933.467 1
  23558579.243 1 123801095.519 1
  24532259.792 2 128917917.462 1
  20942238.118 1 110052234.943 1
  24847013.976 8 130571939.26235
  22751054.146 4 121745397.875 2
  20690364.467 1 108728594.122 1
  23093365.840 4 123447333.395 2
  21183749.387 1 113159636.482 1
  24777465.261 1 130206472.751 1
  22193593.267 1 116628143.382 1
  23111887.906 1 121453794.250 1
 19 11  9 18 10  1.9990053  0 16R 9G 5G24R20R19G 2G31G25G15R21G12R 5
                                R16G20G29G21
  19077180.588 1 101871087.411 1
  22159300.309 1 116447927.543 1
  22479192.011 1 118128926.145 1
  20869919.566 1 111600915.137 1
  22782031.645 2 121868506.548 1
  23559222.947 1 123804478.165 1
  24531756.597 2 128915272.371 1
  20941822.977 1 110050053.309 1
  24846962.358 8 130571667.54724
  22750828.305 4 121744186.731 2
  20690405.859 1 108728810.923 1
  23092894.021 4 123444811.091 2
  21184442.230 1 113163335.785 1
  24776816.043 1 130203062.709 1
  22193533.064 2 116627827.884 1
  23111363.772 1 121451038.685 1
 19 11  9 18 10  2.9990053  0 16R 9G 5G24R20R19G 2G31G25G15R21G12R 5
                                R16G20G29G21
  19077083.111 1 101870564.699 1
  22159342.817 1 116448152.214 1
  22479761.970 1 118131919.682 1
  20870126.212 4 111602020.749 2
  22782512.817 2 121871079.419 1
  23559866.651 1 123807860.829 1
  24531256.544 4 128912627.752 3
  20941407.627 1 110047871.964 1
  24846905.750 9                
  22750602.430 1 121742976.352 1
  20690446.972 1 108729028.175 1
  23092421.923 2 123442288.720 1
  21185134.759 1 113167035.522 1
  24776166.930 1 130199652.552 1
  22193472.965 1 116627512.154 1
  23110839.393 1 121448283.404 1
 19 11  9 18 10  3.9990053  0 16R 9G 5G24R20R19G 2G31G25G15R21G12R 5
                                R16G20G29G21
  19076985.913 1 101870042.803 1
  22159385.675 1 116448377.285 1
  22480331.266 1 118134913.237 1
  20870332.717 2 111603126.419 1
  22782993.676 2 121873652.051 1
  23560510.249 1 123811243.511 1
  24530753.280 4 128909983.415 2
  20940992.696 1 110045690.913 1
  24846850.363 9                
  22750376.868 2 121741766.291 1
  20690488.922 1 108729245.863 1
  23091950.383 4 123439766.309 2
  21185827.428 1 113170735.620 1
  24775517.851 1 130196242.184 1
  22193412.762 2 116627196.552 1
  23110315.049 1 121445528.355 1
 19 11  9 18 10  4.9990053  0 16R 9G 5G24R20R19G 2G31G25G15R21G12R 5
                                R16G20G29G21
  19076888.750 1 101869521.673 1
  22159428.707 1 116448602.810 1
  22480900.841 1 118137906.838 1
  20870538.839 2 111604232.214 1
  22783474.673 4 121876224.447 3
  23561153.918 1 123814626.345 1
  24530252.912 4 128907339.429 2
  20940577.869 1 110043509.989 1
  24846800.630 9               6
  22750150.888 1 121740556.384 1
  20690530.524 1 108729463.956 1
  23091478.599 8 123437243.782 3
  21186520.097 1 113174436.064 1
  24774868.773 1 130192831.551 1
  22193352.978 1 116626880.823 1
  23109790.949 1 121442773.492 1
 19 11  9 18 10  5.9990053  0 16R 9G 5G24R20R19G 2G31G25G15R21G12R 5
                                R16G20G29G21
  19076791.587 1 101869001.393 1
  22159471.949 1 116448828.844 1
  22481471.010 1 118140900.461 1
  20870745.380 2 111605338.189 1
  22783959.231 4 121878796.398 2
  23561796.296 4 123818074.60435
  24529748.531 4 128904695.796 1
  20940162.799 1 110041329.357 1
  24846753.898 9 130570544.14035
  22749925.187 2 121739346.769 1
  20690571.706 1 108729682.426 1
  23091006.989 2 123434721.131 1
  21187212.941 1 113178136.902 1
  24774219.799 1 130189420.746 1
  22193292.809 1 116626564.946 1
  23109266.954 1 121440018.885 1
 19 11  9 18 10  6.9990053  0 16R 9G 5G24R20R19G 2G31G25G15R21G12R 5
                                R16G20G29G21
  19076694.285 1 101868482.041 1
  22159515.191 1 116449055.423 1
  22482041.178 1 118143894.294 1
  20870951.921 1 111606444.518 1
  22784436.599 4 121881368.308 1
  23562443.280 2 123821474.28021
  24529243.696 2 128902052.663 1
  20939747.623 1 110039149.105 1
  24846708.423 9               6
  22749699.241 2 121738137.791 1
  20690613.412 1 108729901.557 1
  23090534.996 2 123432198.656 1
  21187905.889 1 113181838.264 1
  24773570.512 1 130186009.898 1
  22193232.606 1 116626249.164 1
  23108742.889 1 121437264.689 1
 19 11  9 18 10  7.9990053  0 16R 9G 5G24R20R19G 2G31G25G15R21G12R 5
                                R16G20G29G21
  19076597.297 1 101867963.454 1
  22159558.711 1 116449282.537 1
  22482610.823 1 118146888.118 1
  20871158.462 1 111607550.921 1
  22784918.853 4 121883940.029 1
  23563085.169 2 123824856.89721
  24528739.455 2 128899409.843 1
  20939332.692 1 110036969.080 1
  24846662.215 8 130570059.11535
  22749473.366 1 121736929.062 1
  20690655.293 1 108730121.101 1
  23090063.456 2 123429676.092 2
  21188598.628 1 113185539.990 1
  24772921.050 1 130182598.810 1
  22193172.368 1 116625933.258 1
  23108218.649 1 121434510.711 1
 19 11  9 18 10  8.9990053  0 16R 9G 5G24R20R19G 2G31G25G15R21G12R 5
                                R16G20G29G21
  19076500.867 1 101867445.877 1
  22159602.686 1 116449510.228 1
  22483180.887 1 118149882.187 1
  20871364.933 1 111608657.688 1
  22785399.607 4 121886511.678 1
  23563729.919 1 123828239.67321
  24528235.388 2 128896767.550 1
  20938917.760 1 110034789.450 1
  24846616.216 8 130569784.17623
  22749247.665 1 121735720.871 1
  20690697.034 1 108730341.197 1
  23089591.288 2 123427153.514 1
  21189291.925 1 113189242.273 1
  24772271.832 1 130179187.660 1
  22193112.269 1 116625617.455 1
  23107694.759 1 121431757.151 1
 19 11  9 18 10  9.9990053  0 16R 9G 5G24R20R19G 2G31G25G15R21G12R 5
                                R16G20G29G21
  19076404.437 1 101866929.056 1
  22159646.067 1 116449738.365 1
  22483750.671 1 118152876.238 1
  20871571.857 1 111609764.481 1
  22785881.512 4 121889082.941 1
  23564372.052 1 123831622.37521
  24527732.228 2 128894125.532 1
  20938502.655 1 110032610.003 1
  24846555.315 8 130569508.91323
  22749021.859 1 121734512.816 1
  20690738.844 1 108730561.689 1
  23089119.190 2 123424630.914 1
  21189984.908 1 113192944.871 1
  24771622.823 1 130175776.287 1
  22193052.310 1 116625301.483 1
  23107170.659 1 121429003.762 1
 19 11  9 18 10 10.9990053  0 16R 9G 5G24R20R19G 2G31G25G15R21G12R 5
                                R16G20G29G21
  19076308.181 1 101866412.970 1
  22159689.763 1 116449966.895 1
  22484320.596 1 118155870.251 1
  20871778.398 1 111610871.345 1
  22786362.510 2 121891653.880 1
  23565016.733 1 123835004.96821
  24527229.348 1 128891483.776 1
  20938087.828 1 110030430.738 1
  24846495.460 8 130569233.23323
  22748795.878 1 121733305.082 1
  20690780.655 1 108730782.535 1
  23088647.441 2 123422108.141 1
  21190678.449 1 113196647.787 1
  24770973.431 1 130172364.619 1
  22192992.212 1 116624985.385 1
  23106646.838 1 121426250.562 1
 19 11  9 18 10 11.9990053  0 16R 9G 5G24R20R19G 2G31G25G15R21G12R 5
                                R16G20G29G21
  19076211.717 1 101865897.862 1
  22159733.074 1 116450196.013 1
  22484890.380 1 118158864.434 1
  20871985.358 1 111611978.505 1
  22786843.333 4 121894224.685 1
  23565659.669 1 123838387.68021
  24526726.572 1 128888842.496 1
  20937672.932 1 110028251.827 1
  24846454.627 8 130568957.31423
  22748570.038 1 121732097.767 1
  20690822.431 1 108731003.951 1
  23088175.308 4 123419585.497 2
  21191371.467 1 113200351.225 1
  24770323.934 1 130168952.884 1
  22192932.392 1 116624669.332 1
  23106123.053 1 121423497.740 1
 19 11  9 18 10 12.9990053  0 16R 9G 5G24R20R19G 2G31G25G15R21G12R 5
                                R16G20G29G21
  19076115.461 1 101865383.577 1
  22159776.839 1 116450425.624 1
  22485460.479 1 118161858.676 1
  20872192.457 1 111613085.842 1
  22787324.052 2 121896795.298 1
  23566305.013 1 123841770.39521
  24526223.866 1 128886201.596 1
  20937258.349 1 110026073.193 1
  24846401.578 8 130568681.15623
  22748344.511 1 121730890.877 1
  20690864.800 1 108731225.825 1
  23087703.175 4 123417062.781 2
  21192064.764 1 113204055.063 1
  24769674.751 1 130165540.968 1
  22192872.015 1 116624353.216 1
  23105599.267 1 121420745.203 1
 19 11  9 18 10 13.9990053  0 16R 9G 5G24R20R19G 2G31G25G15R21G12R 5
                                R16G20G29G21
  19076019.241 1 101864870.465 1
  22159820.639 1 116450656.047 1
  22486030.124 1 118164853.292 1
  20872399.626 1 111614193.701 1
  22787804.840 2 121899365.963 1
  23566948.054 1 123845153.41121
  24525721.509 2 128883561.454 1
  20936843.732 1 110023895.151 1
  24846347.343 8 130568404.92023
  22748118.915 1 121729684.654 1
  20690906.925 1 108731448.472 1
  23087231.007 4 123414540.352 3
  21192758.271 1 113207759.648 1
  24769025.219 1 130162129.184 1
  22192811.811 1 116624037.359 1
  23105075.970 1 121417993.249 1
 19 11  9 18 10 14.9990053  0 16R 9G 5G24R20R19G 2G31G25G15R21G12R 5
                                R16G20G29G21
  19075923.230 1 101864358.027 1
  22159864.753 1 116450886.805 1
  22486600.048 1 118167847.830 1
  20872606.620 1 111615301.553 1
  22788285.280 2 121901936.280 1
  23567591.757 1 123848536.26821
  24525219.083 2 128880921.448 1
  20936429.010 1 110021717.207 1
  24846293.073 8 130568128.28723
  22747893.353 1 121728478.577 1
  20690949.468 1 108731671.426 1
  23086758.908 4 123412017.641 2
  21193451.812 1 113211464.499 1
  24768375.826 1 130158717.082 1
  22192751.887 1 116623721.278 1
  23104552.184 1 121415241.395 1
 19 11  9 18 10 15.9990053  0 16R 9G 5G24R20R19G 2G31G25G15R21G12R 5
                                R16G20G29G21
  19075827.533 1 101863846.531 1
  22159908.937 1 116451118.173 1
  22487169.762 1 118170842.522 1
  20872813.824 1 111616409.696 1
  22788765.789 2 121904506.447 1
  23568235.600 1 123851919.23021
  24524716.726 2 128878281.971 1
  20936014.568 1 110019539.646 1
  24846242.851 8 130567851.35623
  22747667.792 1 121727272.975 1
  20690992.012 1 108731894.941 1
  23086286.496 4 123409495.060 2
  21194145.563 1 113215169.828 1
  24767726.539 1 130155304.897 1
  22192691.789 1 116623405.279 1
  23104028.608 1 121412489.933 1
 19 11  9 18 10 16.9990053  0 16R 9G 5G24R20R19G 2G31G25G15R21G12R 5
                                R16G20G29G21
  19075732.115 1 101863335.881 1
  22159953.226 1 116451350.010 1
  22487739.512 1 118173837.262 1
  20873021.238 1 111617517.992 1
  22789246.298 2 121907076.339 1
  23568879.304 1 123855302.19221
  24524214.578 2 128875642.822 1
  20935600.090 1 110017362.332 1
  24846182.857 8 130567574.13924
  22747442.335 1 121726067.693 1
  20691034.556 1 108732118.906 1
  23085814.503 4 123406972.453 2
  21194839.489 1 113218875.562 1
  24767077.076 1 130151892.540 1
  22192631.760 1 116623089.176 1
  23103504.961 1 121409738.723 1
 19 11  9 18 10 17.9990053  0 16R 9G 5G24R20R19G 2G31G25G15R21G12R 5
                                R16G20G29G21
  19075636.662 1 101862826.230 1
  22159997.445 1 116451582.474 1
  22488309.192 1 118176832.196 1
  20873228.790 1 111618626.598 1
  22789726.877 2 121909646.159 1
  23569523.182 1 123858685.27721
  24523712.221 2 128873004.183 1
  20935186.066 1 110015185.421 1
  24846132.426 8 130567296.77823
  22747216.773 1 121724862.924 1
  20691077.553 1 108732343.454 1
  23085342.439 4 123404449.954 2
  21195533.274 1 113222581.834 1
  24766427.440 1 130148480.114 1
  22192571.801 1 116622773.150 1
  23102981.525 1 121406987.910 1
 19 11  9 18 10 18.9990053  0 16R 9G 5G24R20R19G 2G31G25G15R21G12R 5
                                R16G20G29G21
  19075541.558 1 101862317.337 1
  22160041.594 1 116451815.412 1
  22488879.116 1 118179827.178 1
  20873436.274 1 111619735.344 1
  22790206.967 4 121912215.733 2
  23570166.746 1 123862068.331 1
  24523210.388 2 128870365.935 1
  20934771.659 1 110013008.755 1
  24846080.285 8 130567018.43813
  22746991.282 1 121723658.448 1
  20691120.341 1 108732568.427 1
  23084869.922 4 123401927.348 2
  21196227.618 1 113226288.505 1
  24765778.292 1 130145067.500 1
  22192511.772 1 116622457.052 1
  23102458.332 1 121404237.336 1
 19 11  9 18 10 19.9990053  0 16R 9G 5G24R20R19G 2G31G25G15R21G12R 5
                                R16G20G29G21
  19075446.176 1 101861809.393 1
  22160086.022 1 116452048.919 1
  22489448.935 1 118182822.310 1
  20873644.001 1 111620844.357 1
  22790687.232 2 121914785.134 1
  23570810.659 1 123865451.462 1
  24522708.485 2 128867728.087 1
  20934357.495 1 110010832.432 1
  24846036.520 8 130566740.490 4
  22746766.104 1 121722454.392 1
  20691163.024 1 108732793.949 1
  23084397.789 4 123399404.804 2
  21196921.195 1 113229995.664 1
  24765128.794 1 130141654.780 1
  22192451.918 1 116622140.971 1
  23101934.756 1 121401487.124 1
 19 11  9 18 10 20.9990053  0 16R 9G 5G24R20R19G 2G31G25G15R21G12R 5
                                R16G20G29G21
  19075351.211 1 101861302.399 1
  22160130.590 1 116452283.029 1
  22490018.685 1 118185817.649 1
  20873851.624 1 111621953.655 1
  22791167.602 2 121917354.430 1
  23571454.572 1 123868834.711 1
  24522206.442 2 128865090.805 1
  20933943.681 1 110008656.515 1
  24845983.820 8 130566462.355 4
  22746540.961 2 121721250.895 1
  20691206.056 1 108733020.059 1
  23083925.412 4 123396882.299 2
  21197615.190 1 113233703.344 1
  24764479.297 1 130138242.036 1
  22192392.064 1 116621824.966 1
  23101411.633 1 121398737.320 1
 19 11  9 18 10 21.9990053  0 16R 9G 5G24R20R19G 2G31G25G15R21G12R 5
                                R16G20G29G21
  19075256.073 1 101860796.362 1
  22160175.367 1 116452517.784 1
  22490588.853 1 118188813.190 1
  20874059.281 1 111623063.304 1
  22791648.181 1 121919923.629 1
  23572098.625 1 123872218.100 1
  24521704.574 1 128862454.018 1
  20933529.657 1 110006481.001 1
  24845927.491 8 130566184.014 4
  22746316.098 2 121720047.865 1
  20691249.298 1 108733246.745 1
  23083453.174 4 123394359.912 2
  21198309.395 1 113237411.567 1
  24763830.044 1 130134829.204 1
  22192331.965 1 116621509.025 1
  23100888.266 1 121395987.902 1
 19 11  9 18 10 22.9990053  0 16R 9G 5G24R20R19G 2G31G25G15R21G12R 5
                                R16G20G29G21
  19075161.353 1 101860291.098 1
  22160220.214 1 116452752.901 1
  22491158.777 1 118191808.656 1
  20874267.218 1 111624172.995 1
  22792128.515 2 121922492.492 1
  23572742.468 1 123875601.390 1
  24521202.985 2 128859817.414 1
  20933115.668 1 110004305.626 1
  24845867.881 8 130565905.155 4
  22746091.164 1 121718845.013 1
  20691292.609 1 108733473.793 1
  23082981.041 2 123391837.397 1
  21199003.460 1 113241120.069 1
  24763180.512 1 130131416.115 1
  22192271.902 1 116621192.930 1
  23100365.214 1 121393238.661 1
 19 11  9 18 10 23.9990053  0 16R 9G 5G24R20R19G 2G31G25G15R21G12R 5
                                R16G20G29G21
  19075066.808 1 101859786.939 1
  22160264.922 1 116452988.850 1
  22491728.736 1 118194804.491 1
  20874474.806 1 111625283.188 1
  22792609.094 2 121925061.458 1
  23573386.172 1 123878984.978 1
  24520701.884 1 128857181.587 1
  20932701.783 1 110002130.850 1
  24845814.169 8 130565626.412 4
  22745866.301 1 121717642.832 1
  20691335.886 1 108733701.603 1
  23082509.082 2 123389315.165 1
  21199697.699 1 113244829.296 1
  24762531.120 1 130128003.151 1
  22192211.733 1 116620877.085 1
  23099842.265 1 121390490.003 1
 19 11  9 18 10 24.9990053  0 16R 9G 5G24R20R19G 2G31G25G15R21G12R 5
                                R16G20G29G21
  19074972.612 1 101859283.769 1
  22160310.013 1 116453225.425 1
  22492298.905 1 118197800.532 1
  20874682.673 1 111626393.669 1
  22793089.778 2 121927630.340 1
  23574029.980 1 123882368.690 1
  24520200.679 1 128854546.236 1
  20932287.829 1 109999956.450 1
  24845764.157 8 130565347.439 3
  22745641.368 1 121716441.145 1
  20691379.302 1 108733929.980 1
  23082036.635 2 123386793.045 1
  21200392.532 1 113248539.065 1
  24761881.204 1 130124590.124 1
  22192151.565 1 116620561.283 1
  23099319.213 1 121387741.722 1
 19 11  9 18 10 25.9990053  0 16R 9G 5G24R20R19G 2G31G25G15R21G12R 5
                                R16G20G29G21
  19074878.415 1 101858781.438 1
  22160354.790 1 116453462.488 1
  22492868.724 1 118200796.655 1
  20874890.575 1 111627504.327 1
  22793570.043 2 121930198.947 1
  23574673.788 1 123885752.376 1
  24519699.230 2 128851911.221 1
  20931874.155 1 109997782.327 1
  24845716.866 8 130565068.072 4
  22745416.679 2 121715239.812 1
  20691422.614 1 108734158.821 1
  23081564.851 2 123384270.883 1
  21201087.330 1 113252249.244 1
  24761231.672 1 130121176.914 1
  22192091.432 1 116620245.447 1
  23098796.125 1 121384993.722 1
 19 11  9 18 10 26.9990053  0 16R 9G 5G24R20R19G 2G31G25G15R21G12R 5
                                R16G20G29G21
  19074784.079 1 101858279.866 1
  22160400.196 1 116453699.992 1
  22493438.962 1 118203792.774 1
  20875098.197 1 111628615.097 1
  22794050.238 2 121932767.287 1
  23575317.771 1 123889136.059 1
  24519197.850 1 128849276.567 1
  20931460.759 1 109995608.403 1
  24845664.097 8 130564788.404 4
  22745192.408 2 121714038.802 1
  20691465.890 1 108734388.091 1
  23081092.962 2 123381748.561 1
  21201782.197 1 113255959.743 1
  24760581.861 1 130117763.495 1
  22192031.473 1 116619929.504 1
  23098273.212 1 121382245.952 1
 19 11  9 18 10 27.9990053  0 16R 9G 5G24R20R19G 2G31G25G15R21G12R 5
                                R16G20G29G21
  19074690.232 1 101857779.326 1
  22160445.182 1 116453938.129 1
  22494008.642 1 118206789.143 1
  20875305.785 1 111629726.203 1
  22794530.363 2 121935335.522 1
  23575961.824 1 123892519.873 1
  24518696.750 2 128846642.436 1
  20931047.468 1 109993434.939 1
  24845605.150 8 130564508.603 5
  22744968.068 2 121712838.281 1
  20691509.725 1 108734617.973 1
  23080621.388 2 123379226.386 1
  21202477.065 1 113259670.839 1
  24759932.189 1 130114350.072 1
  22191971.165 1 116619613.668 1
  23097750.264 1 121379498.610 1
 19 11  9 18 10 28.9990053  0 16R 9G 5G24R20R19G 2G31G25G15R21G12R 5
                                R16G20G29G21
  19074596.559 1 101857279.752 1
  22160490.553 1 116454176.922 1
  22494578.601 1 118209785.690 1
  20875513.443 1 111630837.586 1
  22795010.593 2 121937903.650 1
  23576606.051 1 123895903.825 1
  24518196.033 1 128844008.789 1
  20930633.758 1 109991261.816 1
  24845549.938 8 130564228.536 5
  22744743.519 2 121711638.137 1
  20691553.839 1 108734848.441 1
  23080149.185 2 123376704.315 1
  21203172.212 1 113263382.435 1
  24759282.622 1 130110936.576 1
  22191911.136 1 116619297.888 1
  23097227.455 1 121376751.655 1
 19 11  9 18 10 29.9990053  0 16R 9G 5G24R20R19G 2G31G25G15R21G12R 5
                                R16G20G29G21
  19074503.166 1 101856780.941 1
  22160535.679 1 116454416.105 1
  22495148.665 1 118212782.199 1
  20875721.170 1 111631949.085 1
  22795490.789 2 121940471.511 1
  23577250.034 1 123899287.688 1
  24517695.212 1 128841375.459 1
  20930220.223 1 109989088.900 1
  24845492.771 8 130563948.102 4
  22744518.970 1 121710438.315 1
  20691597.884 1 108735079.274 1
  23079677.296 4 123374182.088 2
  21203867.673 1 113267094.385 1
  24758632.916 1 130107522.835 1
  22191850.758 1 116618981.958 1
  23096704.996 1 121374004.902 1
 19 11  9 18 10 30.9990053  0 16R 9G 5G24R20R19G 2G31G25G15R21G12R 5
                                R16G20G29G21
  19074409.702 1 101856283.220 1
  22160581.189 1 116454656.019 1
  22495718.973 1 118215779.015 1
  20875929.212 1 111633060.983 1
  22795970.635 2 121943039.361 1
  23577894.156 1 123902671.781 1
  24517194.181 1 128838742.741 1
  20929806.967 1 109986916.499 1
  24845430.788 8 130563667.537 4
  22744295.083 1 121709239.132 1
  20691641.753 1 108735310.806 1
  23079202.615 4 123371660.095 2
  21204562.680 1 113270806.988 1
  24757983.419 1 130104109.141 1
  22191790.799 1 116618666.217 1
  23096182.501 1 121371258.643 1
 19 11  9 18 10 31.9990053  0 16R 9G 5G24R20R19G 2G31G25G15R21G12R 5
                                R16G20G29G21
  19074316.728 1 101855786.379 1
  22160627.118 1 116454896.454 1
  22496288.827 1 118218775.919 1
  20876136.939 1 111634173.074 1
  22796450.516 2 121945606.972 1
  23578537.581 1 123906055.888 1
  24516693.081 1 128836110.416 1
  20929393.536 1 109984744.393 1
  24845374.668 8 130563386.730 4
  22744070.953 1 121708040.287 1
  20691686.112 1 108735542.826 1
  23078721.897 8 123369138.069 3
  21205257.932 1 113274520.018 1
  24757333.782 1 130100695.296 1
  22191730.945 1 116618350.433 1
  23095659.902 1 121368512.700 1
 19 11  9 18 10 32.9990053  0 16R 9G 5G24R20R19G 2G31G25G15R21G12R 5
                                R16G20G29G21
  19074224.137 1 101855290.593 1
  22160672.873 1 116455137.599 1
  22496858.717 1 118221773.131 1
  20876344.841 1 111635285.593 1
  22796930.501 1 121948174.599 1
  23579181.773 1 123909440.238 1
  24516191.911 2 128833478.706 1
  20928980.420 1 109982572.765 1
  24845319.246 8 130563105.859 4
  22743846.299 1 121706842.104 1
  20691730.470 1 108735775.529 1
  23078255.906 4 123366616.350 2
  21205953.253 1 113278233.671 1
  24756684.355 1 130097281.514 1
  22191670.951 1 116618034.811 1
  23095137.373 1 121365767.250 1
 19 11  9 18 10 33.9990053  0 16R 9G 5G24R20R19G 2G31G25G15R21G12R 5
                                R16G20G29G21
  19074131.546 1 101854795.657 1
  22160719.011 1 116455379.280 1
  22497428.850 1 118224770.434 1
  20876552.743 1 111636398.277 1
  22797410.278 2 121950742.034 1
  23579825.686 1 123912824.630 1
  24515691.194 2 128830847.361 1
  20928567.303 1 109980401.458 1
  24845263.998 8 130562824.641 4
  22743622.447 1 121705644.235 1
  20691774.899 1 108736008.708 1
  23077793.719 4 123364094.606 2
  21206648.540 1 113281947.754 1
  24756034.928 1 130093867.568 1
  22191610.783 1 116617719.169 1
  23094615.053 1 121363022.099 1
 19 11  9 18 10 34.9990053  0 16R 9G 5G24R20R19G 2G31G25G15R21G12R 5
                                R16G20G29G21
  19074039.234 1 101854301.561 1
  22160764.940 1 116455621.446 1
  22497998.844 1 118227767.815 1
  20876760.680 1 111637511.144 1
  22797890.193 2 121953309.221 1
  23580469.564 1 123916209.000 1
  24515190.373 2 128828216.442 1
  20928154.327 1 109978230.404 1
  24845209.728 8                
  22743398.421 1 121704446.676 1
  20691819.571 1 108736242.357 1
  23077320.819 4 123361572.763 2
  21207343.861 1 113285662.257 1
  24755385.116 1 130090453.450 1
  22191550.824 1 116617403.479 1
  23094092.558 1 121360277.229 1
 19 11  9 18 10 35.9990053  0 16R 9G 5G24R20R19G 2G31G25G15R21G12R 5
                                R16G20G29G21
  19073947.376 1 101853808.387 1
  22160811.253 1 116455864.198 1
  22498568.978 1 118230765.316 1
  20876969.035 1 111638624.280 1
  22798370.109 2 121955876.240 1
  23581113.268 1 123919593.444 1
  24514689.726 2 128825585.924 1
  20927741.280 1 109976059.703 1
  24845157.238 9                
  22743174.710 1 121703249.585 1
  20691864.209 1 108736476.533 1
  23076848.511 4 123359050.905 2
  21208039.601 1 113289377.210 1
  24754735.375 1 130087039.244 1
  22191490.481 1 116617087.788 1
  23093570.099 1 121357532.700 1
 19 11  9 18 10 36.9990053  0 16R 9G 5G24R20R19G 2G31G25G15R21G12R 5
                                R16G20G29G21
  19073855.274 1 101853316.165 1
  22160857.392 1 116456107.542 1
  22499139.251 1 118233762.981 1
  20877176.867 1 111639737.690 1
  22798849.955 2 121958443.163 1
  23581757.390 1 123922977.989 1
  24514189.254 1 128822955.929 1
  20927328.268 1 109973889.363 1
  24845104.957 9                
  22742951.591 1 121702052.966 1
  20691908.602 1 108736711.271 1
  23076378.716 4 123356529.179 2
  21208735.167 1 113293092.697 1
  24754085.703 1 130083624.948 1
  22191430.278 1 116616772.155 1
  23093047.709 1 121354788.553 1
 19 11  9 18 10 37.9990053  0 16R 9G 5G24R20R19G 2G31G25G15R21G12R 5
                                R16G20G29G21
  19073763.521 1 101852824.896 1
  22160903.704 1 116456351.481 1
  22499709.524 1 118236760.826 1
  20877385.293 1 111640851.372 1
  22799329.871 2 121961009.985 1
  23582401.199 1 123926362.635 1
  24513688.816 1 128820326.412 1
  20926915.326 1 109971719.419 1
  24845054.666 9                
  22742728.438 1 121700856.775 1
  20691952.995 1 108736946.590 1
  23075906.862 4 123354007.556 1
  21209430.907 1 113296808.725 1
  24753436.032 1 130080210.598 1
  22191370.109 1 116616456.566 1
  23092525.668 1 121352044.794 1
 19 11  9 18 10 38.9990053  0 16R 9G 5G24R20R19G 2G31G25G15R21G12R 5
                                R16G20G29G21
  19073671.558 1 101852334.411 1
  22160950.331 1 116456595.885 1
  22500280.076 1 118239758.701 1
  20877593.474 1 111641965.255 1
  22799809.752 2 121963576.530 1
  23583045.356 1 123929747.248 1
  24513188.414 1 128817697.211 1
  20926502.454 1 109969549.705 1
  24845009.260 9                
  22742505.459 1 121699660.937 1
  20691997.877 1 108737182.329 1
  23075436.404 4 123351485.886 1
  21210126.891 1 113300525.124 1
  24752786.465 1 130076796.027 1
  22191309.732 1 116616140.877 1
  23092003.697 1 121349301.272 1
 19 11  9 18 10 39.9990053  0 16R 9G 5G24R20R19G 2G31G25G15R21G12R 5
                                R16G20G29G21
  19073580.433 1 101851844.792 1
  22160996.889 1 116456840.778 1
  22500850.559 1 118242756.625 1
  20877801.271 1 111643079.263 1
  22800289.773 1 121966142.815 1
  23583689.688 1 123933131.864 1
  24512688.046 1 128815068.406 1
  20926089.652 1 109967380.267 1
  24844961.307 9                
  22742282.271 1 121698465.435 1
  20692042.899 1 108737418.535 1
  23074965.807 2 123348964.171 1
  21210822.632 1 113304241.915 1
  24752136.374 1 130073381.287 1
  22191249.528 1 116615825.136 1
  23091481.727 1 121346558.030 1
 19 11  9 18 10 40.9990053  0 16R 9G 5G24R20R19G 2G31G25G15R21G12R 5
                                R16G20G29G21
  19073489.378 1 101851356.053 1
  22161043.899 1 116457086.223 1
  22501421.146 1 118245754.665 1
  20878009.487 1 111644193.463 1
  22800769.270 2 121968708.851 1
  23584333.671 1 123936516.535 1
  24512188.063 1 128812440.040 1
  20925677.094 1 109965211.141 1
  24844909.899 8               6
  22742059.082 1 121697270.319 1
  20692087.711 1 108737655.244 1
  23074494.372 2 123346442.434 1
  21211519.174 1 113307959.122 1
  24751486.493 1 130069966.402 1
  22191189.290 1 116615509.381 1
  23090959.581 1 121343815.085 1
 19 11  9 18 10 41.9990053  0 16R 9G 5G24R20R19G 2G31G25G15R21G12R 5
                                R16G20G29G21
  19073398.078 1 101850868.207 1
  22161090.526 1 116457332.205 1
  22501992.117 1 118248752.836 1
  20878218.331 1 111645307.912 1
  22801248.802 2 121971274.767 1
  23584977.549 1 123939901.216 1
  24511687.870 1 128809812.111 1
  20925264.466 1 109963042.348 1
  24844860.724 8 130560598.93734
  22741835.650 1 121696075.600 1
  20692132.698 1 108737892.451 1
  23074022.902 2 123343920.702 1
  21212215.264 1 113311676.775 1
  24750836.647 1 130066551.422 1
  22191129.506 1 116615193.624 1
  23090437.820 1 121341072.484 1
 19 11  9 18 10 42.9990053  0 16R 9G 5G24R20R19G 2G31G25G15R21G12R 5
                                R16G20G29G21
  19073307.547 1 101850381.139 1
  22161137.712 1 116457578.629 1
  22502562.914 1 118251750.992 1
  20878427.175 1 111646422.467 1
  22801728.299 2 121973840.419 1
  23585621.601 1 123943285.860 1
  24511188.130 1 128807184.455 1
  20924851.594 1 109960873.747 1
  24844811.200 4 130560315.14823
  22741612.845 1 121694881.144 1
  20692177.894 1 108738130.067 1
  23073551.362 2 123341398.900 1
  21212911.807 1 113315394.814 1
  24750186.243 1 130063136.187 1
  22191069.512 1 116614877.746 1
  23089916.163 1 121338330.074 1
 19 11  9 18 10 43.9990053  0 16R 9G 5G24R20R19G 2G31G25G15R21G12R 5
                                R16G20G29G21
  19073216.840 1 101849895.056 1
  22161184.758 1 116457825.680 1
  22503133.256 1 118254749.331 1
  20878635.775 1 111647537.308 1
  22802207.622 2 121976405.937 1
  23586265.689 1 123946670.619 1
  24510687.972 1 128804557.303 1
  20924438.931 1 109958705.569 1
  24844757.209 4 130560031.20023
  22741389.692 1 121693687.216 1
  20692222.881 1 108738368.269 1
  23073079.508 2 123338877.167 1
  21213607.931 1 113319113.381 1
  24749536.432 1 130059720.893 1
  22191008.995 1 116614561.952 1
  23089394.471 1 121335588.103 1
 19 11  9 18 10 44.9990053  0 16R 9G 5G24R20R19G 2G31G25G15R21G12R 5
                                R16G20G29G21
  19073126.379 1 101849409.989 1
  22161231.908 1 116458073.388 1
  22503704.088 1 118257747.944 1
  20878844.620 1 111648652.487 1
  22802686.630 2 121978971.406 1
  23586909.811 1 123950055.566 1
  24510188.198 1 128801930.721 1
  20924026.617 1 109956537.802 1
  24844704.684 4 130559747.12723
  22741166.922 1 121692493.770 1
  20692268.461 1 108738607.108 1
  23072607.968 2 123336355.575 1
  21214304.020 1 113322832.524 1
  24748886.620 1 130056305.597 1
  22190948.861 1 116614246.253 1
  23088872.849 1 121332846.543 1
 19 11  9 18 10 45.9990053  0 16R 9G 5G24R20R19G 2G31G25G15R21G12R 5
                                R16G20G29G21
  19073035.986 1 101848925.755 1
  22161278.989 1 116458321.592 1
  22504275.199 1 118260746.603 1
  20879053.394 1 111649767.866 1
  22803166.232 2 121981536.615 1
  23587553.899 1 123953440.494 1
  24509688.703 1 128799304.508 1
  20923614.094 1 109954370.322 1
  24844649.751 4 130559462.74023
  22740944.118 1 121691300.701 1
  20692314.145 1 108738846.406 1
  23072136.010 2 123333833.936 1
  21215000.982 1 113326552.086 1
  24748236.879 1 130052890.130 1
  22190888.832 1 116613930.491 1
  23088351.018 1 121330105.274 1
 19 11  9 18 10 46.9990053  0 16R 9G 5G24R20R19G 2G31G25G15R21G12R 5
                                R16G20G29G21
  19072945.629 1 101848442.345 1
  22161326.349 1 116458570.282 1
  22504845.751 1 118263745.300 1
  20879262.343 1 111650883.383 1
  22803645.694 2 121984101.641 1
  23588197.707 1 123956825.404 1
  24509188.964 1 128796678.650 1
  20923201.641 1 109952203.095 1
  24844590.944 4 130559178.03123
  22740721.383 1 121690107.967 1
  20692359.830 1 108739086.147 1
  23071663.772 4 123331312.242 2
  21215697.455 1 113330272.051 1
  24747586.649 1 130049474.489 1
  22190828.873 1 116613614.666 1
  23087829.291 1 121327364.275 1
 19 11  9 18 10 47.9990053  0 16R 9G 5G24R20R19G 2G31G25G15R21G12R 5
                                R16G20G29G21
  19072855.272 1 101847959.978 1
  22161373.918 1 116458819.675 1
  22505416.303 1 118266744.256 1
  20879471.362 1 111651999.289 1
  22804125.261 2 121986666.597 1
  23588841.934 1 123960210.531 1
  24508689.608 1 128794053.459 1
  20922789.362 1 109950036.360 1
  24844531.334 4 130558893.17924
  22740498.823 1 121688915.793 1
  20692405.654 1 108739326.552 1
  23071191.465 2 123328790.754 1
  21216394.172 1 113333992.558 1
  24746936.698 1 130046058.865 1
  22190768.984 1 116613299.003 1
  23087307.914 1 121324623.767 1
 19 11  9 18 10 48.9990053  0 16R 9G 5G24R20R19G 2G31G25G15R21G12R 5
                                R16G20G29G21
  19072764.950 1 101847478.530 1
  22161421.348 1 116459069.612 1
  22505987.379 1 118269743.321 1
  20879680.625 1 111653115.405 1
  22804604.374 2 121989231.378 1
  23589485.917 1 123963595.696 1
  24508189.904 1 128791428.586 1
  20922377.118 1 109947869.933 1
  24844474.202 4 130558607.51014
  22740276.577 1 121687724.016 1
  20692451.793 1 108739567.463 1
  23070719.087 4 123326269.311 2
  21217090.889 1 113337713.526 1
  24746286.643 1 130042643.120 1
  22190708.921 1 116612983.308 1
  23086786.396 1 121321883.560 1
 19 11  9 18 10 49.9990053  0 16R 9G 5G24R20R19G 2G31G25G15R21G12R 5
                                R16G20G29G21
  19072674.662 1 101846997.951 1
  22161469.336 1 116459320.045 1
  22506558.036 1 118272742.445 1
  20879889.748 1 111654231.694 1
  22805083.383 2 121991795.899 1
  23590130.005 1 123966980.875 1
  24507690.164 1 128788804.181 1
  20921964.560 1 109945703.769 1
  24844414.976 4 130558322.109 4
  22740053.773 1 121686532.574 1
  20692498.105 1 108739808.833 1
  23070246.954 4 123323747.815 3
  21217787.711 1 113341434.907 1
  24745636.692 1 130039227.207 1
  22190649.031 1 116612667.580 1
  23086264.705 1 121319143.631 1
 19 11  9 18 10 50.9990053  0 16R 9G 5G24R20R19G 2G31G25G15R21G12R 5
                                R16G20G29G21
  19072584.828 1 101846518.388 1
  22161517.184 1 116459571.163 1
  22507128.728 1 118275741.828 1
  20880098.906 1 111655348.342 1
  22805562.810 4 121994360.394 2
  23590774.232 1 123970366.215 1
  24507190.669 1 128786180.285 1
  20921552.595 1 109943538.072 1
  24844356.378 4 130558036.649 3
  22739831.073 1 121685341.671 1
  20692544.348 1 108740050.857 1
  23069774.612 4 123321226.510 2
  21218484.673 1 113345156.903 1
  24744986.811 1 130035811.316 1
  22190589.073 1 116612351.971 1
  23085743.397 1 121316404.153 1
 19 11  9 18 10 51.9990053  0 16R 9G 5G24R20R19G 2G31G25G15R21G12R 5
                                R16G20G29G21
  19072494.750 1 101846039.796 1
  22161565.347 1 116459822.875 1
  22507699.839 1 118278741.368 1
  20880308.169 1 111656465.294 1
  22806042.098 4 121996924.763 2
  23591418.564 1 123973751.655 1
  24506691.454 1 128783556.850 1
  20921140.491 1 109941372.762 1
  24844296.419 4 130557750.912 3
  22739608.548 1 121684151.295 1
  20692590.801 1 108740293.448 1
  23069302.548 4 123318705.188 2
  21219181.600 1 113348879.436 1
  24744336.581 1 130032395.328 1
  22190529.044 1 116612036.408 1
  23085222.019 1 121313665.080 1
 19 11  9 18 10 52.9990053  0 16R 9G 5G24R20R19G 2G31G25G15R21G12R 5
                                R16G20G29G21
  19072404.812 1 101845562.186 1
  22161613.230 1 116460075.511 1
  22508270.635 1 118281741.176 1
  20880517.083 1 111657582.588 1
  22806521.385 2 121999489.119 2
  23592062.791 1 123977137.369 1
  24506191.889 2 128780934.059 1
  20920728.491 1 109939207.908 1
  24844236.913 4 130557465.056 3
  22739386.477 1 121682961.407 1
  20692637.428 1 108740536.693 1
  23068830.729 2 123316184.114 1
  21219878.841 1 113352602.569 1
  24743686.630 1 130028979.403 1
  22190469.399 1 116611721.018 1
  23084701.095 1 121310926.467 1
 19 11  9 18 10 53.9990053  0 15R 9G24R20R19G 2G31G25G15R21G12R 5R16
                                G20G29G21
  19072315.118 1 101845085.326 1
  22508841.327 1 118284740.967 1
  20880726.137 1 111658699.982 1
  22807000.533 4 122002053.163 2
  23592706.983 1 123980522.909 1
  24505692.778 2 128778311.478 1
  20920316.422 1 109937043.250 1
  24844181.666 4 130557178.745 3
  22739164.196 1 121681771.730 1
  20692683.950 1 108740780.310 1
  23068359.085 2 123313662.885 1
  21220575.977 1 113356325.972 1
  24743036.505 1 130025563.167 1
  22190409.614 1 116611405.419 1
  23084179.997 1 121308188.019 1
 19 11  9 18 10 54.9990053  0 16R 9G 5G24R20R19G 2G31G25G15R21G12R 5
                                R16G20G29G21
  19072225.528 1 101844609.239 1
  22161711.405 4 116460578.63611
  22509411.705 1 118287740.768 1
  20880935.086 1 111659817.464 1
  22807479.577 2 122004616.895 1
  23593351.245 1 123983908.411 1
  24505193.457 2 128775689.272 1
  20919904.736 1 109934878.799 1
  24844134.900 4 130556892.105 4
  22738941.915 1 121680582.368 1
  20692730.647 1 108741024.344 1
  23067887.336 2 123311141.563 1
  21221273.288 1 113360049.743 1
  24742386.310 1 130022146.734 1
  22190349.202 1 116611089.730 1
  23083659.108 1 121305449.820 1
 19 11  9 18 10 55.9990053  0 15R 9G24R20R19G 2G31G25G15R21G12R 5R16
                                G20G29G21
  19072136.114 1 101844134.165 1
  22509982.781 1 118290740.809 1
  20881144.244 1 111660935.285 1
  22807958.760 2 122007180.544 1
  23593995.437 1 123987294.034 1
  24504694.381 2 128773067.584 1
  20919492.946 1 109932714.771 1
  24844085.760 4 130556605.236 3
  22738720.367 2 121679393.581 1
  20692777.518 1 108741268.942 1
  23067416.005 2 123308620.348 1
  21221970.668 1 113363774.049 1
  24741736.045 1 130018730.285 1
  22190289.138 1 116610774.157 1
  23083138.324 1 121302712.015 1
 19 11  9 18 10 56.9990053  0 16R 9G 5G24R20R19G 2G31G25G15R21G12R 5
                                R16G20G29G21
  19072047.152 1 101843660.080 1
  22161809.161 4 116461092.692 1
  22510553.508 1 118293740.996 1
  20881353.228 1 111662053.356 1
  22808437.733 2 122009744.020 1
  23594639.839 1 123990679.717 1
  24504195.305 2 128770446.324 1
  20919081.260 1 109930551.094 1
  24844041.017 4 130556318.083 2
  22738498.435 2 121678205.074 1
  20692824.250 1 108741514.125 1
  23066944.919 2 123306099.292 1
  21222667.909 1 113367498.884 1
  24741086.024 1 130015313.728 1
  22190228.726 1 116610458.558 1
  23082617.644 1 121299974.583 1
 19 11  9 18 10 57.9990053  0 16R 9G 5G24R20R19G 2G31G25G15R21G12R 5
                                R16G20G29G21
  19071958.645 1 101843186.574 1
  22161856.067 2 116461347.609 1
  22511124.619 1 118296741.068 1
  20881562.700 1 111663171.444 1
  22808916.777 4 122012307.258 2
  23595280.716 4 123994065.412 2
  24503696.403 2 128767825.307 1
  20918669.365 1 109928387.529 1
  24843986.014 8 130556030.583 3
  22738276.643 1 121677016.827 1
  20692870.807 1 108741759.636 1
  23066473.484 4 123303577.878 2
  21223365.185 1 113371223.903 1
  24740436.073 1 130011896.824 1
  22190168.627 1 116610142.797 1
  23082096.999 1 121297237.257 1
 19 11  9 18 10 58.9990053  0 16R 9G 5G24R20R19G 2G31G25G15R21G12R 5
                                R16G20G29G21
  19071869.998 1 101842714.157 1
  22161903.811 2 116461603.124 1
  22511695.345 1 118299741.437 1
  20881771.824 1 111664289.854 1
  22809396.309 4 122014870.213 2
  23595927.595 4 123997451.026 2
  24503197.955 4 128765204.844 2
  20918257.785 1 109926224.451 1
  24843937.642 8 130555743.017 2
  22738054.571 2 121675829.211 1
  20692917.574 1 108742005.760 1
  23066001.979 4 123301056.783 2
  21224062.600 1 113374949.588 1
  24739785.634 1 130008479.933 1
  22190107.970 1 116609827.009 1
  23081576.180 1 121294500.398 1
 19 11  9 18 10 59.9990053  0 16R 9G 5G24R20R19G 2G31G25G15R21G12R 5
                                R16G20G29G21
  19071781.560 1 101842242.713 1
  22161952.113 1 116461859.245 1
  22512266.282 1 118302741.910 1
  20881985.275 4 111665408.646 2
  22809876.643 4 122017433.146 1
  23596570.985 2 124000836.891 1
  24502699.926 8 128762585.159 4
  20917846.308 1 109924061.724 1
  24843883.198 4 130555455.120 2
  22737832.919 2 121674641.962 1
  20692964.201 1 108742252.478 1
  23065530.021 2 123298535.663 1
  21224759.806 1 113378675.687 1
  24739135.543 1 130005063.006 1
  22190044.765 4 116609471.95533
  23081055.256 1 121291763.911 1
 19 11  9 18 11  0.9990053  0 16R 9G 5G24R20R19G 2G31G25G15R21G12R 5
                                R16G20G29G21
  19071693.785 1 101841772.283 1
  22162000.451 1 116462116.036 1
  22512837.323 1 118305742.626 1
  20882188.849 2 111666527.792 1
  22810353.313 4 122019996.001 1
  23597217.690 2 124004222.912 1
  24502202.525 9 128759942.46935
  20917434.972 1 109921899.511 1
  24843830.044 4 130555167.144 2
  22737611.336 1 121673455.294 1
  20693011.456 1 108742499.823 1
  23065058.865 2 123296014.834 1
  21225457.222 1 113382402.415 1
  24738485.558 1 130001646.103 1
  22189983.585 4 116609156.54021
  23080534.716 1 121289027.939 1
 19 11  9 18 11  1.9990053  0 16R 9G 5G24R20R19G 2G31G25G15R21G12R 5
                                R16G20G29G21
  19071605.941 1 101841302.495 1
  22162050.393 1 116462373.137 1
  22513408.119 1 118308743.256 1
  20882399.194 2 111667646.858 1
  22810835.393 4 122022558.497 1
  23597860.905 2 124007608.712 1
  24501704.740 4 128757323.37122
  20917023.775 1 109919737.293 1
  24843769.213 4 130554878.666 2
  22737386.333 4 121672268.677 2
  20693058.641 1 108742747.424 1
  23064587.081 2 123293493.623 1
  21226154.532 1 113386129.341 1
  24737835.502 2 129998228.805 1
  22189926.418 2 116608840.77221
  23080014.316 1 121286292.049 1
 19 11  9 18 11  2.9990053  0 16R 9G 5G24R20R19G 2G31G25G15R21G12R 5
                                R16G20G29G21
  19071518.062 1 101840833.546 1
  22162099.673 1 116462630.705 1
  22513979.579 1 118311743.900 1
  20882609.818 2 111668766.128 1
  22811308.434 4 122025120.734 1
  23598505.830 1 124010994.548 1
  24501206.222 4 128754704.44022
  20916612.334 1 109917575.411 1
  24843715.257 4 130554589.917 2
  22737164.924 4 121671082.510 1
  20693105.757 1 108742995.496 1
  23064115.122 2 123290972.480 2
  21226852.297 1 113389856.714 1
  24737185.307 1 129994811.302 1
  22189866.668 2 116608525.00821
  23079493.916 1 121283556.262 1
 19 11  9 18 11  3.9990053  0 16R 9G 5G24R20R19G 2G31G25G15R21G12R 5
                                R16G20G29G21
  19071430.392 1 101840365.597 1
  22162148.463 1 116462888.963 1
  22514550.725 1 118314744.811 1
  20882816.638 1 111669885.680 1
  22811787.023 2 122027682.872 1
  23599149.359 1 124014380.507 1
  24500707.774 4 128752086.13121
  20916200.927 1 109915413.890 1
  24843655.263 8 130554300.871 2
  22736945.052 2 121669896.815 1
  20693152.907 1 108743244.134 1
  23063643.233 1 123288451.343 1
  21227549.677 1 113393584.630 1
  24736535.077 4 129991393.754 2
  22189803.778 1 116608209.27321
  23078973.096 1 121280821.000 1
 19 11  9 18 11  4.9990053  0 16R 9G 5G24R20R19G 2G31G25G15R21G12R 5
                                R16G20G29G21
  19071343.001 1 101839898.482 1
  22162197.603 1 116463147.659 1
  22515121.591 1 118317745.789 1
  20883026.459 1 111671005.398 1
  22812265.962 4 122030244.748 1
  23599794.808 1 124017766.484 1
  24500207.686 2 128749468.18521
  20915789.451 1 109913252.659 1
  24843600.050 4 130554011.572 2
  22736722.073 2 121668711.482 1
  20693200.267 1 108743493.283 1
  23063171.100 1 123285930.197 1
  21228247.337 1 113397312.941 1
  24735884.847 4 129987976.133 2
  22189744.622 1 116607893.54721
  23078452.382 1 121278086.051 1
 19 11  9 18 11  5.9990053  0 16R 9G 5G24R20R19G 2G31G25G15R21G12R 5
                                R16G20G29G21
  19071256.029 1 101839432.250 1
  22162246.743 1 116463406.951 1
  22515692.667 1 118320746.869 1
  20883235.408 1 111672125.348 1
  22812746.018 2 122032806.519 1
  23600438.965 1 124021152.504 1
  24499711.681 2 128746850.73321
  20915378.115 1 109911091.776 1
  24843539.324 4 130553722.029 3
  22736501.048 2 121667526.522 1
  20693247.557 1 108743742.927 1
  23062699.281 1 123283409.083 1
  21228945.485 1 113401041.686 1
  24735234.512 4 129984558.406 2
  22189684.942 1 116607577.76621
  23077931.772 1 121275351.409 1
 19 11  9 18 11  6.9990053  0 16R 9G 5G24R20R19G 2G31G25G15R21G12R 5
                                R16G20G29G21
  19071168.604 1 101838966.592 1
  22162295.848 1 116463666.487 1
  22516263.638 1 118323747.724 1
  20883443.869 1 111673245.219 1
  22813224.782 4 122035367.751 2
  23601083.297 1 124024538.264 1
  24499215.431 2 128744233.45321
  20914966.953 1 109908930.922 1
  24843493.569 4 130553431.921 2
  22736278.244 2 121666341.718 1
  20693295.266 1 108743992.780 1
  23062227.532 1 123280887.730 1
  21229642.936 1 113404770.549 1
  24734584.108 4 129981140.184 2
  22189625.471 1 116607261.21511
  23077411.302 1 121272616.846 1
 19 11  9 18 11  7.9990053  0 16R 9G 5G24R20R19G 2G31G25G15R21G12R 5
                                R16G20G29G21
  19071081.736 1 101838501.859 1
  22162345.686 1 116463926.587 1
  22516834.679 1 118326748.740 1
  20883653.167 1 111674365.304 1
  22813703.581 2 122037928.812 1
  23601727.419 1 124027924.076 1
  24498715.866 2 128741616.49221
  20914555.756 1 109906770.402 1
  24843438.985 4 130553141.558 2
  22736055.160 2 121665157.345 1
  20693343.115 1 108744243.191 1
  23061755.364 2 123278366.417 1
  21230341.224 1 113408499.882 1
  24733933.703 4 129977721.893 2
  22189566.036 1 116606945.142 1
  23076890.797 1 121269882.539 1
 19 11  9 18 11  8.9990053  0 16R 9G 5G24R20R19G 2G31G25G15R21G12R 5
                                R16G20G29G21
  19070995.149 1 101838037.968 1
  22162395.209 1 116464187.177 1
  22517405.894 1 118329749.826 1
  20883862.569 1 111675485.565 1
  22814182.485 2 122040489.628 1
  23602371.716 1 124031309.906 1
  24498217.174 2 128738999.95621
  20914144.489 1 109904610.145 1
  24843381.085 8 130552850.890 3
  22735834.171 2 121663973.272 1
  20693391.242 1 108744493.999 1
  23061283.161 2 123275845.059 1
  21231039.163 1 113412229.679 1
  24733283.089 4 129974303.271 1
  22189505.588 1 116606629.004 1
  23076370.501 1 121267148.530 1
 19 11  9 18 11  9.9990053  0 16R 9G 5G24R20R19G 2G31G25G15R21G12R 5
                                R16G20G29G21
  19070908.770 1 101837575.083 1
  22162444.454 1 116464448.356 1
  22517976.900 1 118332750.982 1
  20884071.972 1 111676606.077 1
  22814661.249 2 122043050.325 1
  23603015.978 1 124034695.781 1
  24497719.180 2 128736383.81721
  20913733.606 1 109902450.261 1
  24843323.779 8 130552559.978 3
  22735612.344 2 121662789.535 1
  20693438.882 1 108744745.409 1
  23060811.342 2 123273323.856 1
  21231737.276 1 113415959.950 1
  24732634.116 2 129970884.767 1
  22189445.839 1 116606312.888 1
  23075850.450 1 121264414.937 1
 19 11  9 18 11 10.9990053  0 16R 9G 5G24R20R19G 2G31G25G15R21G12R 5
                                R16G20G29G21
  19070822.566 1 101837113.096 1
  22162494.396 1 116464710.125 1
  22518547.906 1 118335752.271 1
  20884281.584 1 111677726.846 1
  22815140.048 2 122045610.817 1
  23603660.275 1 124038081.751 1
  24497222.233 2 128733768.23121
  20913322.584 1 109900290.735 1
  24843261.342 8 130552268.824 3
  22735391.110 1 121661606.428 1
  20693486.486 1 108744997.366 1
  23060339.314 4 123270802.573 2
  21232435.634 1 113419690.676 1
  24731979.244 2 129967466.210 1
  22189386.299 1 116605996.844 1
  23075330.398 1 121261681.693 1
 19 11  9 18 11 11.9990053  0 16R 9G 5G24R20R19G 2G31G25G15R21G12R 5
                                R16G20G29G21
  19070736.676 1 101836651.912 1
  22162544.339 1 116464972.361 1
  22519119.924 1 118338753.195 1
  20884491.266 1 111678847.747 1
  22815618.742 4 122048171.166 2
  23604304.782 1 124041467.721 1
  24496724.587 2 128731152.93421
  20912912.015 1 109898131.451 1
  24843216.913 8 130551977.192 3
  22735169.911 1 121660423.454 1
  20693534.648 1 108745249.734 1
  23059867.565 4 123268281.381 2
  21233133.817 1 113423421.851 1
  24731329.188 2 129964047.256 1
  22189326.375 1 116605680.667 1
  23074810.347 1 121258948.706 1
 19 11  9 18 11 12.9990053  0 16R 9G 5G24R20R19G 2G31G25G15R21G12R 5
                                R16G20G29G21
  19070650.995 1 101836191.626 1
  22162594.072 1 116465235.159 1
  22519691.384 2 118341754.477 1
  20884700.982 1 111679968.916 1
  22816097.262 2 122050731.252 1
  23604949.114 1 124044853.697 1
  24496227.116 1 128728538.077 1
  20912501.342 1 109895972.515 1
  24843163.027 8 130551685.522 4
  22734948.782 1 121659241.037 1
  20693582.985 1 108745502.658 1
  23059396.129 1 123265759.834 1
  21233831.651 2 113427153.687 2
  24730681.576 2 129960628.352 1
  22189266.800 1 116605364.517 1
  23074289.981 1 121256215.993 1
 19 11  9 18 11 13.9990053  0 16R 9G 5G24R20R19G 2G31G25G15R21G12R 5
                                R16G20G29G21
  19070565.315 1 101835732.136 1
  22162644.050 1 116465498.418 1
  22520262.530 1 118344756.012 1
  20884910.490 1 111681090.230 1
  22816576.166 2 122053291.126 1
  23605593.410 1 124048239.710 1
  24495729.995 1 128725923.625 1
  20912090.773 1 109893813.827 1
  24843107.082 9                
  22734727.757 1 121658058.873 1
  20693630.764 1 108745756.000 1
  23058924.694 1 123263238.555 1
  21234530.602 4 113430885.555 1
  24730029.985 1 129957209.247 1
  22189206.492 1 116605048.304 1
  23073770.000 1 121253483.568 1
 19 11  9 18 11 14.9990053  0 16R 9G 5G24R20R19G 2G31G25G15R21G12R 5
                                R16G20G29G21
  19070479.495 1 101835273.473 1
  22162694.306 1 116465762.095 1
  22520833.675 1 118347757.558 1
  20885120.067 1 111682211.637 1
  22817055.000 2 122055850.705 1
  23606237.987 1 124051625.576 1
  24495232.663 1 128723309.531 1
  20911680.134 1 109891655.322 1
  24843046.809 9                
  22734507.047 1 121656876.966 1
  20693679.101 1 108746009.719 1
  23058453.573 1 123260717.148 1
  21235230.286 4 113434617.776 1
  24729378.952 1 129953789.824 1
  22189146.428 1 116604731.911 1
  23073250.158 1 121250751.346 1
 19 11  9 18 11 15.9990053  0 15R 9G 5G24R20R19G 2G31G25R21G12R 5R16
                                G20G29G21
  19070393.779 1 101834815.861 1
  22162744.388 1 116466026.498 1
  22521404.996 1 118350759.325 1
  20885330.412 1 111683333.411 1
  22817533.380 2 122058410.279 1
  23606882.179 1 124055011.718 1
  24494735.158 1 128720695.950 1
  20911269.426 1 109889497.340 1
  22734285.708 1 121655695.629 1
  20693727.403 1 108746264.163 1
  23057981.894 1 123258195.960 1
  21235931.540 2 113438350.729 1
  24728729.350 1 129950370.477 1
  22189086.364 1 116604415.727 1
  23072730.141 1 121248019.619 1
 19 11  9 18 11 16.9990053  0 15R 9G 5G24R20R19G 2G31G25R21G12R 5R16
                                G20G29G21
  19070308.029 1 101834359.031 1
  22162794.226 1 116466291.377 1
  22521976.246 1 118353761.175 1
  20885540.233 1 111684455.343 1
  22818011.970 2 122060969.532 1
  23607526.511 1 124058397.793 1
  24494238.001 2 128718082.734 1
  20910858.892 1 109887339.564 1
  22734064.684 2 121654514.697 1
  20693775.845 1 108746518.983 1
  23057510.668 2 123255674.517 1
  21236624.419 2 113442084.001 1
  24728078.457 1 129946950.908 1
  22189025.882 1 116604099.409 1
  23072210.369 1 121245288.164 1
 19 11  9 18 11 17.9990053  0 15R 9G 5G24R20R19G 2G31G25R21G12R 5R16
                                G20G29G21
  19070222.802 1 101833903.155 1
  22162844.657 1 116466556.838 1
  22522547.950 2 118356763.391 1
  20885750.334 1 111685577.559 1
  22818490.420 2 122063528.723 1
  23608170.877 1 124061783.998 1
  24493740.705 1 128715470.068 1
  20910448.219 1 109885182.215 1
  22733843.869 1 121653334.116 1
  20693824.182 1 108746774.409 1
  23057039.129 2 123253153.497 1
  21237322.986 2 113445817.758 1
  24727427.529 1 129943531.276 1
  22188965.434 1 116603783.181 1
  23071690.946 1 121242557.095 1
 19 11  9 18 11 18.9990053  0 15R 9G 5G24R20R19G 2G31G25R21G12R 5R16
                                G20G29G21
  19070137.470 1 101833448.200 1
  22162895.298 1 116466822.877 1
  22523119.375 1 118359765.330 1
  20885959.701 1 111686699.975 1
  22818968.835 2 122066087.655 1
  23608815.349 1 124065170.242 1
  24493243.618 2 128712857.725 1
  20910037.790 1 109883025.173 1
  22733623.019 2 121652154.010 1
  20693872.694 1 108747030.354 1
  23056567.728 2 123250632.491 1
  21238025.287 2 113449551.892 1
  24726777.125 1 129940111.594 1
  22188905.161 1 116603466.919 1
  23071171.244 1 121239826.318 1
 19 11  9 18 11 19.9990053  0 15R 9G 5G24R20R19G 2G31G25R21G12R 5R16
                                G20G29G21
  19070052.174 1 101832993.901 1
  22162946.392 1 116467089.248 1
  22523691.079 1 118362767.418 1
  20886169.034 1 111687822.406 1
  22819447.250 2 122068646.296 1
  23609459.402 1 124068556.322 1
  24492746.461 1 128710245.708 1
  20909627.395 1 109880868.263 1
  22733401.959 2 121650974.098 1
  20693921.520 1 108747286.615 1
  23056095.735 1 123248111.120 1
  21238725.041 1 113453286.326 1
  24726126.197 1 129936691.558 1
  22188844.993 1 116603150.484 1
  23070651.646 1 121237095.683 1
 19 11  9 18 11 20.9990053  0 15R 9G 5G24R20R19G 2G31G25R21G12R 5R16
                                G20G29G21
  19069967.435 1 101832540.463 1
  22162997.242 1 116467356.109 1
  22524262.399 1 118365769.547 1
  20886378.611 1 111688945.002 1
  22819925.700 2 122071204.554 1
  23610103.733 1 124071942.391 1
  24492249.200 1 128707634.059 1
  20909217.246 1 109878711.608 1
  22733181.040 2 121649794.454 1
  20693969.822 1 108747543.310 1
  23055623.637 1 123245589.711 1
  21239424.306 1 113457021.154 1
  24725475.373 1 129933271.330 1
  22188784.755 1 116602833.960 1
  23070132.013 1 121234365.316 1
 19 11  9 18 11 21.9990053  0 15R 9G 5G24R20R19G 2G31G25R21G12R 5R16
                                G20G29G21
  19069882.802 1 101832087.917 1
  22163048.162 1 116467623.553 1
  22524833.928 1 118368771.824 1
  20886588.433 1 111690067.856 1
  22820403.871 2 122073762.772 1
  23610747.681 1 124075328.530 1
  24491751.938 2 128705022.757 1
  20908806.921 1 109876555.321 1
  22732960.190 4 121648615.254 2
  20694018.403 1 108747800.546 1
  23055151.957 2 123243068.424 1
  21240123.432 1 113460756.496 1
  24724824.480 1 129929850.998 1
  22188724.447 1 116602517.481 1
  23069612.625 1 121231635.306 1
 19 11  9 18 11 22.9990053  0 15R 9G 5G24R20R19G 2G31G25R21G12R 5R16
                                G20G29G21
  19069798.133 1 101831636.222 1
  22163099.012 1 116467891.470 1
  22525405.109 1 118371774.117 1
  20886797.870 1 111691190.864 1
  22820882.042 2 122076320.719 1
  23611392.327 1 124078714.659 1
  24491254.537 2 128702411.925 1
  20908396.352 1 109874399.281 1
  22732740.003 1 121647436.470 1
  20694067.264 1 108748058.239 1
  23054679.894 2 123240547.040 1
  21240822.732 1 113464492.253 1
  24724173.622 1 129926430.484 1
  22188664.697 1 116602200.911 1
  23069093.167 1 121228905.558 1
 19 11  9 18 11 23.9990053  0 15R 9G 5G24R20R19G 2G31G25R21G12R 5R16
                                G20G29G21
  19069713.465 1 101831185.580 1
  22163150.211 1 116468160.057 1
  22525976.604 1 118374776.608 1
  20887007.692 1 111692314.207 1
  22821360.003 2 122078878.572 1
  23612036.834 1 124082100.925 1
  24490757.485 1 128699801.639 1
  20907986.133 1 109872243.676 1
  22732519.781 1 121646258.126 1
  20694116.299 1 108748316.545 1
  23054207.866 2 123238025.761 1
  21241521.997 1 113468228.569 1
  24723522.589 1 129923009.927 1
  22188604.808 1 116601884.423 1
  23068573.988 1 121226176.239 1
 19 11  9 18 11 24.9990053  0 15R 9G 5G24R20R19G 2G31G25R21G12R 5R16
                                G20G29G21
  19069629.320 1 101830735.945 1
  22163201.270 1 116468429.327 1
  22526547.994 1 118377779.379 1
  20887217.478 1 111693437.971 1
  22821838.523 4 122081436.403 2
  23612681.096 1 124085487.390 1
  24490260.573 2 128697191.900 1
  20907576.018 1 109870088.559 1
  22732299.559 2 121645080.405 1
  20694165.229 1 108748575.552 1
  23053736.151 2 123235504.719 1
  21242221.192 1 113471965.475 1
  24722871.661 1 129919589.441 1
  22188544.500 1 116601568.116 1
  23068054.530 1 121223447.402 1
 19 11  9 18 11 25.9990053  0 15R 9G 5G24R20R19G 2G31G25R21G12R 5R16
                                G20G29G21
  19069545.803 1 101830286.999 1
  22163252.678 1 116468698.926 1
  22527119.244 1 118380782.010 1
  20887427.335 1 111694561.649 1
  22822316.520 2 122083993.836 1
  23613325.393 1 124088873.694 1
  24489763.416 2 128694582.388 1
  20907165.938 1 109867933.536 1
  22732079.477 1 121643902.672 1
  20694214.474 1 108748834.841 1
  23053264.263 2 123232983.404 1
  21242920.632 1 113475702.620 1
  24722220.978 1 129916168.594 1
  22188484.541 1 116601251.525 1
  23067534.967 1 121220718.656 1
 19 11  9 18 11 26.9990053  0 15R 9G 5G24R20R19G 2G31G25R21G12R 5R16
                                G20G29G21
  19069461.903 1 101829838.824 1
  22163304.366 1 116468968.985 1
  22527690.320 1 118383784.689 1
  20887637.680 1 111695685.478 1
  22822794.656 2 122086551.018 1
  23613969.655 1 124092259.937 1
  24489266.818 2 128691973.187 1
  20906755.857 1 109865778.746 1
  22731859.919 1 121642725.354 1
  20694263.684 1 108749094.535 1
  23052792.723 1 123230462.047 1
  21243620.351 1 113479440.085 1
  24721569.875 1 129912747.537 1
  22188424.582 1 116600934.854 1
  23067015.928 1 121217990.158 1
 19 11  9 18 11 27.9990053  0 15R 9G 5G24R20R19G 2G31G25R21G12R 5R16
                                G20G29G21
  19069378.491 1 101829391.642 1
  22163356.123 1 116469239.662 1
  22528261.954 1 118386787.579 1
  20887848.164 1 111696809.660 1
  22823272.966 2 122089108.087 1
  23614613.917 1 124095646.312 1
  24488770.220 2 128689364.492 1
  20906345.952 1 109863624.369 1
  22731640.639 1 121641548.575 1
  20694312.928 1 108749354.846 1
  23052321.462 1 123227940.905 1
  21244320.000 1 113483178.065 1
  24720918.912 1 129909326.463 1
  22188364.554 1 116600618.299 1
  23066496.958 1 121215262.088 1
 19 11  9 18 11 28.9990053  0 15R 9G 5G24R20R19G 2G31G25R21G12R 5R16
                                G20G29G21
  19069295.393 1 101828945.324 1
  22163407.846 1 116469510.886 1
  22528833.379 1 118389790.548 1
  20888058.195 1 111697933.974 1
  22823750.893 2 122091664.920 1
  23615258.144 1 124099032.725 1
  24488274.040 2 128686756.260 1
  20905936.256 1 109861470.298 1
  22731421.185 1 121640372.092 1
  20694362.731 1 108749615.649 1
  23051849.992 1 123225419.683 1
  21245019.788 1 113486916.508 1
  24720267.810 1 129905905.194 1
  22188304.246 1 116600301.679 1
  23065977.745 1 121212534.316 1
 19 11  9 18 11 29.9990053  0 16G15R 9G 5G24R20R19G 2G31G25R21G12R 5
                                R16G20G29G21
  24842192.376 9                
  19069212.713 1 101828499.770 1
  22163459.673 1 116469782.504 1
  22529404.873 1 118392793.446 1
  20888268.540 1 111699058.344 1
  22824228.715 2 122094221.453 1
  23615902.545 1 124102419.003 1
  24487777.581 2 128684148.263 1
  20905526.210 1 109859316.388 1
  22731202.080 1 121639195.937 1
  20694412.150 1 108749876.785 1
  23051379.081 1 123222898.347 1
  21245719.612 1 113490655.241 1
  24719616.707 1 129902483.697 1
  22188244.252 1 116599984.899 1
  23065458.601 1 121209806.699 1
 19 11  9 18 11 30.9990053  0 16G15R 9G 5G24R20R19G 2G31G25R21G12R 5
                                R16G20G29G21
  24842143.481 9                
  19069129.860 1 101828055.087 1
  22163511.779 1 116470054.663 1
  22529976.159 1 118395796.471 1
  20888479.129 1 111700182.949 1
  22824706.501 2 122096777.797 1
  23616547.226 1 124105805.341 1
  24487281.716 2 128681540.743 1
  20905116.409 1 109857162.824 1
  22730983.289 1 121638020.186 1
  20694462.023 1 108750138.459 1
  23050907.995 1 123220377.038 1
  21246419.610 1 113494394.467 1
  24718965.639 1 129899062.080 1
  22188183.909 1 116599668.126 1
  23064939.980 1 121207079.424 1
 19 11  9 18 11 31.9990053  0 16G15R 9G 5G24R20R19G 2G31G25R21G12R 5
                                R16G20G29G21
  24842078.985 9 130546006.12434
  19069047.251 1 101827611.278 1
  22163563.885 1 116470327.364 1
  22530547.549 1 118398799.588 1
  20888689.683 1 111701307.776 1
  22825183.939 2 122099333.920 1
  23617191.768 1 124109191.712 1
  24486785.990 1 128678933.593 1
  20904706.958 1 109855009.566 1
  22730764.603 1 121636844.779 1
  20694511.965 1 108750400.603 1
  23050437.257 1 123217855.752 1
  21247119.399 1 113498134.109 1
  24718314.293 1 129895640.305 1
  22188123.217 1 116599351.315 1
  23064420.801 1 121204352.455 1
 19 11  9 18 11 32.9990053  0 16G15R 9G 5G24R20R19G 2G31G25R21G12R 5
                                R16G20G29G21
  24842034.591 9 130545708.64923
  19068964.222 1 101827168.394 1
  22163615.747 1 116470600.626 1
  22531118.799 1 118401802.818 1
  20888900.517 1 111702432.825 1
  22825661.692 2 122101889.906 1
  23617836.064 1 124112578.150 1
  24486290.544 1 128676326.947 1
  20904297.506 1 109852856.662 1
  22730546.022 1 121635669.734 1
  20694562.187 1 108750663.308 1
  23049965.857 1 123215334.469 1
  21247819.362 1 113501874.206 1
  24717662.911 1 129892218.442 1
  22188063.119 1 116599034.540 1
  23063901.832 1 121201625.846 1
 19 11  9 18 11 33.9990053  0 16G15R 9G 5G24R20R19G 2G31G25R21G12R 5
                                R16G20G29G21
  24841981.647 8 130545410.95523
  19068881.473 1 101826726.546 1
  22163667.714 1 116470874.571 1
  22531690.084 1 118404806.242 1
  20889110.757 1 111703558.216 1
  22826139.548 2 122104445.772 1
  23618480.710 1 124115964.743 1
  24485794.608 1 128673720.806 1
  20903888.019 1 109850704.192 1
  22730327.545 1 121634495.273 1
  20694612.269 1 108750926.636 1
  23049494.806 1 123212813.319 1
  21248519.430 1 113505614.863 1
  24717011.494 1 129888796.586 1
  22188002.462 1 116598717.868 1
  23063382.967 1 121198899.658 1
 19 11  9 18 11 34.9990053  0 16G15R 9G 5G24R20R19G 2G31G25R21G12R 5
                                R16G20G29G21
  24841926.644 8 130545113.04022
  19068798.410 1 101826285.513 1
  22163719.646 1 116471149.008 1
  22532261.718 1 118407809.735 1
  20889321.591 1 111704683.779 1
  22826617.510 2 122107001.451 1
  23619125.391 1 124119351.343 1
  24485298.987 1 128671115.098 1
  20903478.427 1 109848552.020 1
  22730108.824 1 121633321.176 1
  20694662.386 1 108751190.435 1
  23049023.720 1 123210292.110 1
  21249219.602 1 113509355.927 1
  24716360.147 1 129885374.554 1
  22187942.223 1 116598401.149 1
  23062864.207 1 121196173.787 1
 19 11  9 18 11 35.9990053  0 16G15R 9G 5G24R20R19G 2G31G25R21G12R 5
                                R16G20G29G21
  24841869.093 4 130544814.72122
  19068715.906 1 101825845.305 1
  22163771.892 1 116471423.927 1
  22532833.143 1 118410813.258 1
  20889531.970 1 111705809.444 1
  22827095.576 2 122109556.860 1
  23619769.688 1 124122737.904 1
  24484803.192 1 128668509.711 1
  20903068.871 1 109846400.077 1
  22729889.894 1 121632147.378 1
  20694712.992 1 108751454.676 1
  23048551.971 1 123207770.883 1
  21249919.914 1 113513097.354 1
  24715708.835 1 129881952.315 1
  22187882.369 1 116598084.336 1
  23062345.691 1 121193448.149 1
 19 11  9 18 11 36.9990053  0 16G15R 9G 5G24R20R19G 2G31G25R21G12R 5
                                R16G20G29G21
  24841812.834 4 130544515.96922
  19068633.401 1 101825405.817 1
  22163824.278 1 116471699.221 1
  22533405.091 1 118413816.739 1
  20889742.246 1 111706935.224 1
  22827573.398 2 122112111.923 1
  23620414.195 1 124126124.348 1
  24484307.501 1 128665904.607 1
  20902659.384 1 109844248.309 1
  22729670.719 1 121630973.786 1
  20694763.213 1 108751719.264 1
  23048080.396 1 123205249.540 1
  21250620.296 1 113516839.084 1
  24715057.314 1 129878529.821 1
  22187821.991 1 116597767.358 1
  23061827.071 1 121190722.671 1
 19 11  9 18 11 37.9990053  0 16G15R 9G 5G24R20R19G 2G31G25R21G12R 5
                                R16G20G29G21
  24841759.785 4 130544217.06122
  19068551.315 1 101824967.270 1
  22163877.047 1 116471975.118 1
  22533976.900 1 118416820.380 1
  20889952.591 1 111708061.272 1
  22828051.045 2 122114666.849 1
  23621058.526 1 124129510.891 1
  24483812.019 2 128663299.979 1
  20902250.107 1 109842096.931 1
  22729451.963 1 121629800.667 1
  20694814.028 1 108751984.427 1
  23047608.926 1 123202728.292 1
  21251320.713 1 113520581.321 1
  24714406.107 1 129875107.244 1
  22187761.963 1 116597450.420 1
  23061308.241 1 121187997.562 1
 19 11  9 18 11 38.9990053  0 16G15R 9G 5G24R20R19G 2G31G25R21G12R 5
                                R16G20G29G21
  24841703.107 4 130543917.89822
  19068469.264 1 101824529.651 1
  22163930.096 1 116472251.580 1
  22534548.465 1 118419824.158 1
  20890163.075 1 111709187.542 1
  22828528.832 2 122117221.630 1
  23621703.312 1 124132897.471 1
  24483316.294 2 128660695.776 1
  20901840.550 1 109839945.882 1
  22729233.033 1 121628627.982 1
  20694864.425 1 108752250.108 1
  23047137.561 1 123200207.091 1
  21252021.130 1 113524324.021 1
  24713754.900 1 129871684.571 1
  22187701.759 1 116597133.492 1
  23060789.655 1 121185272.817 1
 19 11  9 18 11 39.9990053  0 16G15R 9G 5G24R20R19G 2G31G25R21G12R 5
                                R16G20G29G21
  24841645.800 4 130543618.58522
  19068387.318 1 101824093.118 1
  22163982.691 1 116472528.724 1
  22535120.099 1 118422828.219 1
  20890373.629 1 111710314.162 1
  22829006.479 2 122119776.365 1
  23622347.853 1 124136284.255 1
  24482820.603 2 128658092.182 1
  20901431.482 1 109837795.304 1
  22729014.172 1 121627455.864 1
  20694915.275 1 108752516.445 1
  23046665.986 1 123197686.021 1
  21252721.616 1 113528067.323 1
  24713103.658 1 129868261.911 1
  22187641.242 1 116596816.690 1
  23060271.209 1 121182548.537 1
 19 11  9 18 11 40.9990053  0 16G15R 9G 5G24R20R19G 2G31G25R21G12R 5
                                R16G20G29G21
  24841588.145 4 130543318.82122
  19068305.267 1 101823657.285 1
  22164035.879 1 116472806.277 1
  22535691.768 1 118425832.206 1
  20890584.149 1 111711440.844 1
  22829484.301 2 122122330.712 1
  23622992.394 1 124139670.925 1
  24482325.017 2 128655488.838 1
  20901022.135 1 109835644.896 1
  22728795.346 1 121626283.939 1
  20694966.299 1 108752783.135 1
  23046194.377 1 123195164.842 1
  21253422.313 1 113531810.891 1
  24712452.032 1 129864838.981 1
  22187580.934 1 116596499.724 1
  23059752.868 1 121179824.423 1
 19 11  9 18 11 41.9990053  0 16G15R 9G 5G24R20R19G 2G31G25R21G12R 5
                                R16G20G29G21
  24841531.885 4 130543018.69622
  19068223.251 1 101823222.151 1
  22164088.928 1 116473084.164 1
  22536263.228 1 118428836.101 1
  20890794.738 1 111712567.586 1
  22829962.123 2 122124884.719 1
  23623636.866 1 124143057.446 1
  24481829.605 2 128652885.763 1
  20900613.067 1 109833494.625 1
  22728576.416 1 121625112.230 1
  20695017.463 1 108753050.160 1
  23045723.046 1 123192643.528 1
  21254122.974 1 113535554.686 1
  24711800.510 1 129861415.747 1
  22187520.661 1 116596182.553 1
  23059234.422 1 121177100.461 1
 19 11  9 18 11 42.9990053  0 16G15R 9G 5G24R20R19G 2G31G25R21G12R 5
                                R16G20G29G21
  24841474.684 4 130542718.39622
  19068141.480 1 101822788.027 1
  22164142.116 1 116473362.726 1
  22536835.071 1 118431840.218 1
  20891005.746 1 111713694.645 1
  22830439.840 2 122127438.613 1
  23624281.058 1 124146444.129 1
  24481334.472 2 128650283.244 1
  20900203.999 1 109831344.797 1
  22728357.730 2 121623940.990 1
  20695068.453 1 108753317.788 1
  23045251.402 1 123190122.318 1
  21254823.914 1 113539299.037 1
  24711148.954 1 129857992.505 1
  22187460.283 1 116595865.484 1
  23058716.395 1 121174376.915 1
 19 11  9 18 11 43.9990053  0 15R 9G 5G24R20R19G 2G31G25R21G12R 5R16
                                G20G29G21
  19068059.812 1 101822354.824 1
  22164195.234 1 116473641.833 1
  22537407.020 1 118434844.472 1
  20891216.998 1 111714821.963 1
  22830917.557 2 122129992.374 1
  23624925.599 1 124149830.861 1
  24480839.480 2 128647681.149 1
  20899795.210 1 109829195.323 1
  22728138.834 2 121622770.186 1
  20695119.791 1 108753585.962 1
  23044779.862 1 123187601.190 1
  21255525.203 1 113543043.857 1
  24710497.712 1 129854569.150 1
  22187400.290 1 116595548.442 1
  23058198.089 1 121171653.744 1
 19 11  9 18 11 44.9990053  0 15R 9G 5G24R20R19G 2G31G25R21G12R 5R16
                                G20G29G21
  19067978.250 1 101821922.548 1
  22164248.388 1 116473921.555 1
  22537978.794 1 118437848.887 1
  20891427.657 1 111715949.502 1
  22831394.856 2 122132545.999 1
  23625570.455 1 124153217.679 1
  24480344.347 1 128645079.542 1
  20899386.316 1 109827046.219 1
  22727919.973 2 121621599.856 1
  20695171.130 1 108753854.696 1
  23044308.601 1 123185080.126 1
  21256226.493 1 113546789.160 1
  24709846.330 1 129851145.733 1
  22187339.947 1 116595231.435 1
  23057679.852 1 121168930.947 1
 19 11  9 18 11 45.9990053  0 15R 9G 5G24R20R19G 2G31G25R21G12R 5R16
                                G20G29G21
  19067897.002 1 101821491.139 1
  22164302.065 1 116474201.766 1
  22538550.288 1 118440853.352 1
  20891638.875 1 111717077.198 1
  22831872.573 2 122135099.372 1
  23626215.170 1 124156604.498 1
  24479849.494 2 128642478.312 1
  20898977.528 1 109824897.384 1
  22727701.287 2 121620429.850 1
  20695222.468 1 108754123.891 1
  23043837.655 1 123182559.049 1
  21256927.817 1 113550534.899 1
  24709194.844 1 129847722.152 1
  22187279.848 1 116594914.363 1
  23057162.034 1 121166208.435 1
 19 11  9 18 11 46.9990053  0 15R 9G 5G24R20R19G 2G31G25R21G12R 5R16
                                G20G29G21
  19067815.998 1 101821060.570 1
  22164355.637 1 116474482.497 1
  22539121.748 1 118443857.883 1
  20891850.232 1 111718205.068 1
  22832350.081 2 122137652.510 1
  23626859.642 1 124159991.315 1
  24479354.536 1 128639877.489 1
  20898568.460 1 109822748.851 1
  22727482.566 2 121619260.126 1
  20695273.737 1 108754393.565 1
  23043366.429 1 123180037.934 1
  21257629.211 1 113554281.057 1
  24708543.078 1 129844298.394 1
  22187219.366 1 116594597.240 1
  23056644.182 1 121163486.169 1
 19 11  9 18 11 47.9990053  0 15R 9G 5G24R20R19G 2G31G25R21G12R 5R16
                                G20G29G21
  19067735.378 1 101820630.874 1
  22164408.999 1 116474763.736 1
  22539693.382 1 118446862.480 1
  20892061.554 1 111719333.124 1
  22832827.693 2 122140205.476 1
  23627504.183 1 124163378.141 1
  24478859.403 2 128637277.056 1
  20898159.496 1 109820600.609 1
  22727263.741 2 121618090.839 1
  20695325.320 1 108754663.716 1
  23042895.238 1 123177516.806 1
  21258330.989 1 113558027.601 1
  24707891.801 1 129840874.495 1
  22187159.267 1 116594280.080 1
  23056126.259 1 121160764.235 1
 19 11  9 18 11 48.9990053  0 15R 9G 5G24R20R19G 2G31G25R21G12R 5R16
                                G20G29G21
  19067655.037 1 101820202.057 1
  22164462.572 1 116475045.511 1
  22540264.667 1 118449867.167 1
  20892272.771 1 111720461.381 1
  22833304.922 1 122142758.214 1
  23628148.585 1 124166765.017 1
  24478364.236 2 128634677.072 1
  20897750.812 1 109818452.680 1
  22727044.950 2 121616921.944 1
  20695376.554 1 108754934.370 1
  23042423.594 1 123174995.737 1
  21259032.592 1 113561774.581 1
  24707240.175 1 129837450.485 1
  22187098.750 1 116593962.919 1
  23055608.965 1 121158042.630 1
 19 11  9 18 11 49.9990053  0 15R 9G 5G24R20R19G 2G31G25R21G12R 5R16
                                G20G29G21
  19067574.941 1 101819773.959 1
  22164516.493 1 116475327.674 1
  22540836.337 1 118452871.821 1
  20892484.094 1 111721589.701 1
  22833782.220 2 122145310.668 1
  23628793.091 1 124170151.763 1
  24477869.732 2 128632077.336 1
  20897342.198 1 109816304.924 1
  22726826.159 2 121615753.298 1
  20695428.032 1 108755205.387 1
  23041952.054 2 123172474.491 1
  21259734.231 1 113565521.834 1
  24706588.270 1 129834026.178 1
  22187038.477 1 116593645.573 1
  23055090.938 1 121155321.192 1
 19 11  9 18 11 50.9990053  0 15R 9G 5G24R20R19G 2G31G25R21G12R 5R16
                                G20G29G21
  19067495.054 1 101819346.876 1
  22164570.484 1 116475610.503 1
  22541407.936 1 118455876.678 1
  20892695.486 1 111722718.323 1
  22834259.658 2 122147862.969 1
  23629437.493 1 124173538.664 1
  24477375.367 2 128629478.142 1
  20896933.409 1 109814157.594 1
  22726607.822 1 121614585.158 1
  20695479.789 1 108755477.016 1
  23041480.410 2 123169953.378 1
  21260436.009 1 113569269.627 1
  24705936.644 1 129830601.847 1
  22186978.169 1 116593328.313 1
  23054573.050 1 121152600.136 1
 19 11  9 18 11 51.9990053  0 15R 9G 5G24R20R19G 2G31G25R21G12R 5R16
                                G20G29G21
  19067415.725 1 101818920.851 1
  22164624.475 1 116475894.015 1
  22541979.710 1 118458881.799 1
  20892906.738 1 111723847.337 1
  22834736.922 2 122150415.264 1
  23630081.545 1 124176925.754 1
  24476880.618 2 128626879.534 1
  20896524.969 1 109812010.754 1
  22726389.834 1 121613417.560 1
  20695532.210 1 108755749.310 1
  23041008.940 1 123167432.418 1
  21261138.031 1 113573018.033 1
  24705284.878 1 129827177.592 1
  22186917.791 1 116593011.205 1
  23054055.756 1 121149879.600 1
 19 11  9 18 11 52.9990053  0 15R 9G 5G24R20R19G 2G31G25R21G12R 5R16
                                G20G29G21
  19067336.292 1 101818495.776 1
  22164678.919 1 116476178.169 1
  22542551.658 1 118461887.110 1
  20893118.200 1 111724976.659 1
  22835214.115 2 122152967.435 1
  23630726.052 1 124180312.983 1
  24476386.079 1 128624281.440 1
  20896116.390 1 109809864.332 1
  22726172.055 2 121612250.432 1
  20695584.176 1 108756022.207 1
  23040537.574 1 123164911.609 1
  21261839.774 1 113576766.980 1
  24704633.287 1 129823753.264 1
  22186857.169 1 116592694.193 1
  23053538.078 1 121147159.486 1
 19 11  9 18 11 53.9990053  0 15R 9G 5G24R20R19G 2G31G25R21G12R 5R16
                                G20G29G21
  19067256.823 1 101818071.438 1
  22164732.806 1 116476462.698 1
  22543123.711 1 118464892.369 1
  20893329.836 1 111726106.042 1
  22835690.960 2 122155519.271 1
  23631370.663 1 124183700.080 1
  24475891.400 1 128621683.591 1
  20895707.985 1 109807718.061 1
  22725954.346 1 121611083.486 1
  20695636.527 1 108756295.447 1
  23040065.406 2 123162390.647 1
  21262541.692 1 113580516.210 1
  24703981.731 1 129820328.642 1
  22186796.686 1 116592376.975 1
  23053020.365 1 121144439.508 1
 19 11  9 18 11 54.9990053  0 15R 9G 5G24R20R19G 2G31G25R21G12R 5R16
                                G20G29G21
  19067177.599 1 101817647.970 1
  22164787.215 1 116476747.728 1
  22543695.590 1 118467897.695 1
  20893541.298 1 111727235.567 1
  22836167.944 2 122158070.850 1
  23632015.064 1 124187087.172 1
  24475396.757 1 128619086.145 1
  20895299.475 1 109805572.074 1
  22725736.742 1 121609916.955 1
  20695688.703 1 108756569.159 1
  23039593.832 1 123159869.659 1
  21263243.330 1 113584265.837 1
  24703329.825 1 129816903.871 1
  22186736.239 1 116592059.707 1
  23052502.547 1 121141719.820 1
 19 11  9 18 11 55.9990053  0 15R 9G 5G24R20R19G 2G31G25R21G12R 5R16
                                G20G29G21
  19067098.585 1 101817225.364 1
  22164841.695 1 116477033.284 1
  22544267.503 1 118470903.124 1
  20893752.585 1 111728365.296 1
  22836644.719 2 122160622.262 1
  23632659.710 1 124190474.284 1
  24474902.601 1 128616489.092 1
  20894891.175 1 109803426.398 1
  22725519.556 1 121608750.807 1
  20695740.810 1 108756843.356 1
  23039122.327 1 123157348.675 1
  21263945.457 1 113588015.890 1
  24702678.234 1 129813478.967 1
  22186675.687 1 116591742.409 1
  23051984.939 1 121139000.416 1
 19 11  9 18 11 56.9990053  0 15R 9G 5G24R20R19G 2G31G25R21G12R 5R16
                                G20G29G21
  19067019.919 1 101816803.572 1
  22164895.930 1 116477319.312 1
  22544839.347 1 118473908.581 1
  20893964.081 1 111729495.162 1
  22837121.529 2 122163173.417 1
  23633304.182 1 124193861.359 1
  24474408.167 1 128613892.421 1
  20894482.735 1 109801280.957 1
  22725301.673 1 121607584.974 1
  20695793.230 1 108757117.976 1
  23038650.647 1 123154827.699 1
  21264647.933 1 113591766.294 1
  24702026.608 1 129810053.863 1
  22186615.065 1 116591425.026 1
  23051467.470 1 121136281.284 1
 19 11  9 18 11 57.9990053  0 15R 9G 5G24R20R19G 2G31G25R21G12R 5R16
                                G20G29G21
  19066940.835 1 101816382.866 1
  22164950.340 1 116477606.044 1
  22545411.225 1 118476914.321 1
  20894175.473 1 111730625.398 1
  22837598.478 2 122165724.525 1
  23633948.828 1 124197248.647 1
  24473913.977 1 128611296.342 1
  20894074.540 1 109799136.028 1
  22725084.278 1 121606419.683 1
  20695845.685 1 108757393.289 1
  23038178.689 1 123152306.842 1
  21265350.374 1 113595517.311 1
  24701374.773 1 129806628.808 1
  22186554.443 1 116591107.807 1
  23050950.210 1 121133562.633 1
 19 11  9 18 11 58.9990053  0 15R 9G 5G24R20R19G 2G31G25R21G12R 5R16
                                G20G29G21
  19066861.820 1 101815962.923 1
  22165004.924 1 116477893.255 1
  22545982.999 1 118479920.087 1
  20894386.691 1 111731755.769 1
  22838075.358 2 122168275.371 1
  23634593.334 1 124200635.894 1
  24473419.682 1 128608700.616 1
  20893666.449 1 109796991.337 1
  22724866.674 1 121605254.703 1
  20695898.106 1 108757669.027 1
  23037706.870 1 123149785.936 1
  21266052.571 1 113599268.707 1
  24700722.868 1 129803203.532 1
  22186494.065 1 116590790.486 1
  23050432.986 1 121130844.212 1
 19 11  9 18 11 59.9990053  0 15R 9G 5G24R20R19G 2G31G25R21G12R 5R16
                                G20G29G21
  19066783.050 1 101815543.902 1
  22165059.544 1 116478180.960 1
  22546554.668 1 118482925.906 1
  20894597.804 1 111732886.340 1
  22838552.377 2 122170826.026 1
  23635237.910 1 124204023.131 1
  24472925.736 1 128606105.263 1
  20893258.323 1 109794846.947 1
  22724649.314 1 121604090.103 1
  20695950.596 1 108757945.246 1
  23037235.191 2 123147265.041 1
  21266755.047 1 113603020.499 1
  24700070.858 1 129799778.126 1
  22186433.408 1 116590473.120 1
  23049915.831 1 121128126.109 1
 19 11  9 18 12  0.9990053  0 15R 9G 5G24R20R19G 2G31G25R21G12R 5R16
                                G20G29G21
  19066704.245 1 101815125.714 1
  22165114.233 1 116478469.201 1
  22547126.651 1 118485931.790 1
  20894808.847 1 111734017.068 1
  22839029.152 2 122173376.437 1
  23635882.661 1 124207410.391 1
  24472431.860 2 128603510.323 1
  20892850.093 1 109792702.846 1
  22724432.198 1 121602925.855 1
  20696002.772 1 108758221.952 1
  23036763.197 2 123144744.142 1
  21267457.732 1 113606772.732 1
  24699419.057 1 129796352.551 1
  22186372.786 1 116590155.727 1
  23049398.363 1 121125408.277 1
 19 11  9 18 12  1.9990053  0 15R 9G 5G24R20R19G 2G31G25R21G12R 5R16
                                G20G29G21
  19066625.998 1 101814708.490 1
  22165169.166 1 116478758.035 1
  22547698.670 1 118488937.845 1
  20895020.169 1 111735148.108 1
  22839505.822 2 122175926.745 1
  23636526.993 1 124210797.761 1
  24471938.193 1 128600915.883 1
  20892442.316 1 109790559.143 1
  22724215.188 1 121601762.043 1
  20696055.856 1 108758499.223 1
  23036291.308 2 123142223.370 1
  21268160.452 1 113610525.444 1
  24698767.222 1 129792926.938 1
  22186312.234 1 116589838.364 1
  23048881.278 1 121122690.861 1
 19 11  9 18 12  2.9990053  0 15R 9G 5G24R20R19G 2G31G25R21G12R 5R16
                                G20G29G21
  19066547.786 1 101814292.122 1
  22165223.960 1 116479047.371 1
  22548270.478 1 118491943.957 1
  20895231.526 1 111736279.291 1
  22839982.771 2 122178476.799 1
  23637171.325 1 124214185.107 1
  24471444.352 1 128598321.803 1
  20892034.330 1 109788415.715 1
  22723998.386 1 121600598.609 1
  20696108.416 1 108758776.950 1
  23035819.140 2 123139702.605 1
  21268863.277 1 113614278.535 1
  24698115.107 1 129789501.151 1
  22186251.297 1 116589520.951 1
  23048364.437 1 121119973.709 1
 19 11  9 18 12  3.9990053  0 15R 9G 5G24R20R19G 2G31G25R21G12R 5R16
                                G20G29G21
  19066470.133 1 101813876.641 1
  22165279.067 1 116479337.250 1
  22548842.811 1 118494950.162 1
  20895443.022 1 111737410.673 1
  22840459.441 2 122181026.656 1
  23637815.866 1 124217572.495 1
  24470950.546 2 128595728.155 1
  20891626.658 1 109786272.604 1
  22723781.550 1 121599435.550 1
  20696161.115 1 108759055.203 1
  23035347.356 2 123137181.795 1
  21269566.207 1 113618032.035 1
  24697463.167 1 129786075.209 1
  22186191.164 1 116589203.513 1
  23047847.387 1 121117256.861 1
 19 11  9 18 12  4.9990053  0 15R 9G 5G24R20R19G 2G31G25R21G12R 5R16
                                G20G29G21
  19066392.619 1 101813461.970 1
  22165334.210 1 116479627.610 1
  22549414.968 1 118497956.408 1
  20895654.519 1 111738542.220 1
  22840935.972 2 122183576.232 1
  23638460.233 1 124220959.844 1
  24470456.670 1 128593134.857 1
  20891218.882 1 109784129.753 1
  22723564.574 1 121598272.811 1
  20696213.850 1 108759333.882 1
  23034875.188 2 123134660.928 1
  21270269.346 1 113621785.934 1
  24696811.332 1 129782649.111 1
  22186130.472 1 116588885.999 1
  23047330.372 1 121114540.272 1
 19 11  9 18 12  5.9990053  0 15R 9G 5G24R20R19G 2G31G25R21G12R 5R16
                                G20G29G21
  19066315.175 1 101813048.242 1
  22165389.353 1 116479918.548 1
  22549986.917 1 118500962.805 1
  20895866.050 1 111739673.963 1
  22841412.223 2 122186125.661 1
  23639104.739 1 124224347.282 1
  24469963.247 1 128590542.073 1
  20890811.419 1 109781987.263 1
  22723348.226 1 121597110.486 1
  20696266.794 1 108759613.122 1
  23034403.195 2 123132140.097 1
  21270972.206 1 113625540.331 1
  24696159.426 1 129779222.907 1
  22186069.920 1 116588568.512 1
  23046813.427 1 121111824.062 1
 19 11  9 18 12  6.9990053  0 15R 9G 5G24R20R19G 2G31G25R21G12R 5R16
                                G20G29G21
  19066237.870 1 101812635.560 1
  22165444.565 1 116480210.222 1
  22550558.760 1 118503969.472 1
  20896077.687 1 111740806.148 1
  22841888.544 2 122188675.135 1
  23639749.769 1 124227734.957 1
  24469470.104 1 128587949.869 1
  20890403.922 1 109779845.300 1
  22723131.704 1 121595948.772 1
  20696320.087 1 108759893.061 1
  23033931.411 2 123129619.542 1
  21271674.856 1 113629295.371 1
  24695507.556 1 129775796.780 1
  22186010.031 1 116588251.207 1
  23046296.831 1 121109108.365 1
 19 11  9 18 12  7.9990053  0 15R 9G 5G24R20R19G 2G31G25R21G12R 5R16
                                G20G29G21
  19066160.880 1 101812223.766 1
  22165500.057 1 116480502.404 1
  22551131.162 1 118506976.175 1
  20896289.323 1 111741938.446 1
  22842365.075 2 122191224.354 1
  23640394.275 1 124231122.613 1
  24468977.485 1 128585358.068 1
  20889996.459 1 109777703.623 1
  22722914.937 1 121594787.377 1
  20696373.205 1 108760173.458 1
  23033459.068 2 123127098.976 1
  21272378.135 1 113633050.792 1
  24694855.372 1 129772370.495 1
  22185949.827 1 116587933.844 1
  23045780.025 1 121106392.937 1
 19 11  9 18 12  8.9990053  0 15R 9G 5G24R20R19G 2G31G25R21G12R 5R16
                                G20G29G21
  19066084.134 1 101811812.621 1
  22165555.653 1 116480794.906 1
  22551703.250 1 118509982.790 1
  20896501.169 1 111743070.758 1
  22842841.466 2 122193773.160 1
  23641038.572 1 124234510.088 1
  24468484.690 1 128582766.489 1
  20889588.996 1 109775562.041 1
  22722698.031 1 121593626.194 1
  20696426.464 1 108760454.149 1
  23032987.110 2 123124578.166 1
  21273080.925 1 113636806.411 1
  24694203.431 1 129768943.885 1
  22185889.554 1 116587616.249 1
  23045263.045 1 121103677.606 1
 19 11  9 18 12  9.9990053  0 15R 9G 5G24R20R19G 2G31G25R21G12R 5R16
                                G20G29G21
  19066007.911 1 101811402.475 1
  22165611.250 1 116481088.044 1
  22552275.059 1 118512989.625 1
  20896712.805 1 111744203.390 1
  22843317.473 2 122196321.865 1
  23641683.323 1 124237897.708 1
  24467992.001 1 128580175.433 1
  20889181.255 1 109773420.889 1
  22722480.706 1 121592465.482 1
  20696479.652 1 108760735.467 1
  23032515.360 2 123122057.538 1
  21273783.820 1 113640562.571 1
  24693551.526 1 129765517.223 1
  22185829.107 1 116587298.741 1
  23044746.518 1 121100962.727 1
 19 11  9 18 12 10.9990053  0 15R 9G 5G24R20R19G 2G31G25R21G12R 5R16
                                G20G29G21
  19065931.375 1 101810993.143 1
  22165667.090 1 116481381.633 1
  22552847.461 1 118515996.411 1
  20896924.825 1 111745336.091 1
  22843793.445 2 122198870.278 1
  23642328.213 1 124241285.258 1
  24467499.172 1 128577584.688 1
  20888773.687 1 109771279.960 1
  22722263.520 1 121591305.058 1
  20696533.294 1 108761017.159 1
  23032043.541 2 123119536.793 1
  21274486.750 1 113644319.053 1
  24692899.307 1 129762090.347 1
  22185768.694 1 116586981.099 1
  23044229.713 1 121098248.045 1
 19 11  9 18 12 11.9990053  0 15R 9G 5G24R20R19G 2G31G25R21G12R 5R16
                                G20G29G21
  19065854.733 1 101810584.742 1
  22165723.036 1 116481675.829 1
  22553419.723 1 118519003.371 1
  20897137.020 1 111746469.106 1
  22844269.557 2 122201418.581 1
  23642972.859 1 124244672.905 1
  24467006.238 1 128574994.446 1
  20888366.260 1 109769139.417 1
  22722046.579 1 121590145.088 1
  20696587.145 1 108761299.446 1
  23031572.176 2 123117016.170 1
  21275189.854 1 113648076.033 1
  24692247.367 1 129758663.413 1
  22185708.561 1 116586663.519 1
  23043713.361 1 121095533.753 1
 19 11  9 18 12 12.9990053  0 15R 9G 5G24R20R19G 2G31G25R21G12R 5R16
                                G20G29G21
  19065778.546 1 101810177.246 1
  22165778.946 1 116481970.567 1
  22553991.846 1 118522010.429 1
  20897349.354 1 111747602.318 1
  22844745.564 2 122203966.664 1
  23643617.958 1 124248060.573 1
  24466513.828 1 128572404.628 1
  20887958.832 1 109766999.190 1
  22721829.952 1 121588985.534 1
  20696640.717 1 108761582.222 1
  23031100.636 1 123114495.571 1
  21275893.167 1 113651833.488 1
  24691595.357 1 129755236.344 1
  22185647.869 1 116586345.910 1
  23043196.869 1 121092819.778 1
 19 11  9 18 12 13.9990053  0 15R 9G 5G24R20R19G 2G31G25R21G12R 5R16
                                G20G29G21
  19065702.497 1 101809770.619 1
  22165835.171 1 116482265.848 1
  22554564.109 1 118525017.571 1
  20897561.234 1 111748735.737 1
  22845221.536 2 122206514.545 1
  23644262.465 1 124251448.265 1
  24466021.662 1 128569815.227 1
  20887551.718 1 109764859.279 1
  22721613.186 1 121587826.291 1
  20696694.743 1 108761865.502 1
  23030629.131 1 123111974.978 1
  21276596.551 1 113655591.336 1
  24690943.242 1 129751809.154 1
  22185587.910 1 116586028.270 1
  23042680.308 1 121090106.094 1
 19 11  9 18 12 14.9990053  0 15R 9G 5G24R20R19G 2G31G25R21G12R 5R16
                                G20G29G21
  19065626.589 1 101809364.634 1
  22165891.570 1 116482561.440 1
  22555136.406 1 118528024.583 1
  20897773.673 1 111749869.161 1
  22845697.368 4 122209062.037 2
  23644907.006 1 124254835.787 1
  24465529.287 1 128567226.038 1
  20887144.535 1 109762719.467 1
  22721396.175 1 121586667.249 1
  20696748.385 1 108762149.070 1
  23030157.696 2 123109454.163 1
  21277299.655 1 113659349.396 1
  24690291.058 1 129748381.607 1
  22185527.462 1 116585710.410 1
  23042163.782 1 121087392.534 1
 19 11  9 18 12 15.9990053  0 15R 9G 5G24R20R19G 2G31G25R21G12R 5R16
                                G20G29G21
  19065550.681 1 101808959.297 1
  22165947.934 1 116482857.328 1
  22555708.494 1 118531031.463 1
  20897985.694 1 111751002.538 1
  22846173.061 4 122211609.083 2
  23645551.896 1 124258223.089 1
  24465036.772 1 128564637.046 1
  20886737.526 1 109760579.742 1
  22721179.408 1 121585508.326 1
  20696802.411 1 108762432.908 1
  23029685.633 1 123106933.128 1
  21278003.038 1 113663107.630 1
  24689638.769 1 129744953.702 1
  22185467.364 1 116585392.288 1
  23041647.430 1 121084679.063 1
 19 11  9 18 12 16.9990053  0 15R 9G 5G24R20R19G 2G31G25R21G12R 5R16
                                G20G29G21
  19065474.912 1 101808554.916 1
  22166004.368 1 116483153.833 1
  22556280.931 1 118534038.498 1
  20898198.063 1 111752136.176 1
  22846648.964 2 122214155.975 1
  23646196.403 1 124261610.490 1
  24464544.327 1 128562048.511 1
  20886330.447 1 109758440.393 1
  22720963.339 1 121584349.856 1
  20696856.716 1 108762717.316 1
  23029213.884 1 123104412.193 1
  21278706.317 1 113666866.370 1
  24688986.410 1 129741525.718 1
  22185407.370 1 116585074.209 1
  23041131.147 1 121081965.959 1
 19 11  9 18 12 17.9990053  0 15R 9G 5G24R20R19G 2G31G25R21G12R 5R16
                                G20G29G21
  19065399.317 1 101808151.702 1
  22166060.872 1 116483451.163 1
  22556853.612 1 118537045.907 1
  20898410.257 1 111753270.288 1
  22847125.041 2 122216702.991 1
  23646841.223 1 124264998.209 1
  24464052.230 1 128559460.705 1
  20885923.404 1 109756301.670 1
  22720746.782 1 121583192.088 1
  20696911.161 1 108763002.516 1
  23028742.728 2 123101891.571 1
  21279409.491 1 113670625.850 1
  24688334.155 1 129738097.919 1
  22185347.341 1 116584756.400 1
  23040615.075 1 121079253.469 1
 19 11  9 18 12 18.9990053  0 15R 9G 5G24R20R19G 2G31G25R21G12R 5R16
                                G20G29G21
  19065324.107 1 101807749.359 1
  22166117.271 1 116483749.038 1
  22557426.224 1 118540053.396 1
  20898622.696 1 111754404.606 1
  22847600.908 2 122219249.792 1
  23647486.009 1 124268385.952 1
  24463560.204 1 128556873.340 1
  20885516.430 1 109754163.261 1
  22720530.120 1 121582034.710 1
  20696965.466 1 108763288.220 1
  23028270.874 1 123099370.954 1
  21280112.735 1 113674385.757 1
  24687681.901 1 129734669.972 1
  22185287.208 1 116584438.579 1
  23040098.793 1 121076541.288 1
 19 11  9 18 12 19.9990053  0 15R 9G 5G24R20R19G 2G31G25R21G12R 5R16
                                G20G29G21
  19065248.722 1 101807347.787 1
  22166173.949 1 116484047.290 1
  22557998.346 1 118543060.842 1
  20898834.961 1 111755538.950 1
  22848076.740 2 122221796.225 1
  23648131.004 1 124271773.569 1
  24463068.178 1 128554286.226 1
  20885109.525 1 109752025.017 1
  22720313.668 1 121580877.559 1
  20697020.015 1 108763574.269 1
  23027799.753 2 123096850.212 1
  21280816.537 1 113678145.952 1
  24687029.682 1 129731241.758 1
  22185227.005 1 116584120.566 1
  23039582.859 1 121073829.285 1
 19 11  9 18 12 20.9990053  0 15R 9G 5G24R20R19G 2G31G25R21G12R 5R16
                                G20G29G21
  19065173.651 1 101806946.892 1
  22166230.802 1 116484345.918 1
  22558570.783 1 118546068.196 1
  20899046.876 1 111756673.349 1
  22848552.678 2 122224342.331 1
  23648775.684 1 124275161.049 1
  24462576.082 1 128551699.350 1
  20884702.726 1 109749886.927 1
  22720096.482 1 121579720.628 1
  20697074.879 1 108763860.653 1
  23027328.283 1 123094329.338 1
  21281520.444 1 113681906.376 1
  24686377.253 1 129727813.254 1
  22185166.662 1 116583802.369 1
  23039066.996 1 121071117.429 1
 19 11  9 18 12 21.9990053  0 15R 9G 5G24R20R19G 2G31G25R21G12R 5R16
                                G20G29G21
  19065098.790 1 101806546.911 1
  22166288.109 1 116484645.093 1
  22559143.325 1 118549075.643 1
  20899258.792 1 111757807.966 1
  22849028.720 2 122226888.207 1
  23649420.505 1 124278548.575 1
  24462083.881 1 128549112.969 1
  20884295.752 1 109747749.168 1
  22719879.855 2 121578564.065 1
  20697129.393 1 108764147.564 1
  23026856.953 1 123091808.495 1
  21282224.455 1 113685667.272 1
  24685724.685 1 129724384.618 1
  22185106.214 1 116583484.170 1
  23038551.203 1 121068405.887 1
 19 11  9 18 12 22.9990053  0 15R 9G 5G24R20R19G 2G31G25R21G12R 5R16
                                G20G29G21
  19065024.138 1 101806147.803 1
  22166345.311 1 116484944.779 1
  22559715.553 1 118552083.173 1
  20899471.021 1 111758942.764 1
  22849504.552 2 122229433.889 1
  23650065.325 1 124281936.108 1
  24461592.134 1 128546526.925 1
  20883888.813 1 109745611.698 1
  22719663.194 2 121577407.870 1
  20697184.536 1 108764434.942 1
  23026385.238 1 123089287.623 1
  21282928.746 1 113689428.558 1
  24685072.151 1 129720955.839 1
  22185045.452 1 116583165.916 1
  23038035.269 1 121065694.660 1
 19 11  9 18 12 23.9990053  0 15R 9G 5G24R20R19G 2G31G25R21G12R 5R16
                                G20G29G21
  19064949.765 1 101805749.570 1
  22166402.128 1 116485244.991 1
  22560288.164 1 118555090.767 1
  20899683.670 1 111760077.760 1
  22849980.245 2 122231979.351 2
  23650710.006 1 124285323.662 1
  24461100.212 1 128543941.315 1
  20883482.293 1 109743474.557 1
  22719446.671 2 121576252.082 1
  20697239.050 1 108764722.834 1
  23025913.280 1 123086766.746 1
  21283632.897 1 113693190.281 1
  24684419.862 1 129717526.939 1
  22184984.900 1 116582847.642 1
  23037519.511 1 121062983.741 1
 19 11  9 18 12 24.9990053  0 15R 9G 5G24R20R19G 2G31G25R21G12R 5R16
                                G20G29G21
  19064875.043 1 101805352.190 1
  22166459.470 1 116485545.730 1
  22560860.915 1 118558098.451 1
  20899896.108 1 111761212.935 1
  22850456.462 2 122234524.570 1
  23651354.652 1 124288711.238 1
  24460608.465 1 128541356.125 1
  20883075.458 1 109741337.738 1
  22719230.358 2 121575096.631 1
  20697293.879 1 108765011.212 1
  23025441.496 1 123084245.916 1
  21284336.909 1 113696952.393 1
  24683767.224 1 129714097.902 1
  22184924.453 1 116582529.341 1
  23037003.822 1 121060273.131 1
 19 11  9 18 12 25.9990053  0 15R 9G 5G24R20R19G 2G31G25R21G12R 5R16
                                G20G29G21
  19064800.635 1 101804955.603 1
  22166516.951 1 116485846.915 1
  22561433.352 1 118561106.114 1
  20900108.757 1 111762348.203 1
  22850932.050 2 122237069.543 2
  23651999.333 1 124292098.724 1
  24460116.613 1 128538771.272 1
  20882668.798 1 109739201.120 1
  22719013.871 2 121573941.423 1
  20697348.533 1 108765299.987 1
  23024969.921 2 123081725.022 1
  21285041.235 1 113700714.844 1
  24683114.342 1 129710668.630 1
  22184863.726 1 116582210.905 1
  23036488.517 1 121057562.733 1
 19 11  9 18 12 26.9990053  0 15R 9G 5G24R20R19G 2G31G25R21G12R 5R16
                                G20G29G21
  19064726.472 1 101804559.965 1
  22166574.711 1 116486148.706 1
  22562005.719 1 118564113.974 1
  20900320.707 1 111763483.717 1
  22851407.847 2 122239614.373 1
  23652643.874 1 124295486.329 1
  24459625.110 1 128536186.913 1
  20882262.243 1 109737064.904 1
  22718797.488 2 121572786.738 1
  20697403.850 1 108765589.350 1
  23024498.416 2 123079204.216 1
  21285745.874 1 113704477.812 1
  24682461.703 1 129707239.305 1
  22184803.243 1 116581892.529 1
  23035972.689 1 121054852.728 1
 19 11  9 18 12 27.9990053  0 15R 9G 5G24R20R19G 2G31G25R21G12R 5R16
                                G20G29G21
  19064652.588 1 101804165.247 1
  22166632.192 1 116486451.064 1
  22562578.156 1 118567121.963 1
  20900533.041 1 111764619.487 1
  22851883.401 2 122242159.031 1
  23653288.450 1 124298873.988 1
  24459133.328 1 128533603.010 1
  20881855.548 1 109734929.024 1
  22718581.873 1 121571632.481 1
  20697458.749 1 108765879.246 1
  23024026.737 1 123076683.463 1
  21286450.584 1 113708241.246 1
  24681808.995 1 129703809.889 1
  22184742.133 1 116581574.161 1
  23035457.104 1 121052143.079 1
 19 11  9 18 12 28.9990053  0 15R 9G 5G24R20R19G 2G31G25R21G12R 5R16
                                G20G29G21
  19064578.529 1 101803771.324 1
  22166689.778 1 116486753.853 1
  22563150.628 1 118570129.927 1
  20900745.166 1 111765755.357 1
  22852358.849 2 122244703.377 1
  23653933.096 1 124302261.568 1
  24458641.721 1 128531019.419 1
  20881449.063 1 109732793.380 1
  22718366.119 2 121570478.508 1
  20697514.170 1 108766169.543 1
  23023554.918 2 123074162.647 1
  21287154.979 1 113712004.989 1
  24681156.427 1 129700380.228 1
  22184681.127 1 116581255.675 1
  23034941.555 1 121049433.654 1
 19 11  9 18 12 29.9990053  0 15R 9G 5G24R20R19G 2G31G25R21G12R 5R16
                                G20G29G21
  19064504.749 1 101803378.279 1
  22166747.259 1 116487057.207 1
  22563723.553 1 118573138.013 1
  20900957.291 1 111766891.412 1
  22852834.158 2 122247247.581 1
  23654577.638 1 124305649.195 1
  24458150.148 1 128528436.295 1
  20881042.508 1 109730658.069 1
  22718150.015 2 121569324.898 1
  20697569.523 1 108766460.362 1
  23023083.343 2 123071641.856 1
  21287859.549 1 113715769.183 1
  24680503.614 1 129696950.461 1
  22184620.051 1 116580937.165 1
  23034426.250 1 121046724.531 1
 19 11  9 18 12 30.9990053  0 15R 9G 5G24R20R19G 2G31G25R21G12R 5R16
                                G20G29G21
  19064431.005 1 101802986.041 1
  22166805.263 1 116487361.007 1
  22564296.374 1 118576146.121 1
  20901169.556 1 111768027.636 1
  22853309.433 2 122249791.432 1
  23655222.004 1 124309036.763 1
  24457657.982 1 128525853.508 1
  20880636.092 1 109728522.999 1
  22717934.261 2 121568171.552 1
  20697624.979 1 108766751.608 1
  23022611.559 2 123069121.003 1
  21288564.259 1 113719533.698 1
  24679850.627 1 129693520.483 1
  22184558.871 1 116580618.570 1
  23033910.736 1 121044015.679 1
 19 11  9 18 12 31.9990053  0 15R 9G 5G24R20R19G 2G31G25R21G12R 5R16
                                G20G29G21
  19064357.330 1 101802594.740 1
  22166863.093 1 116487665.378 1
  22564868.846 1 118579154.354 1
  20901381.750 1 111769164.060 1
  22853784.567 2 122252335.172 1
  23655866.720 1 124312424.401 1
  24457166.235 1 128523271.137 1
  20880229.677 1 109726388.274 1
  22717718.402 2 121567018.673 1
  20697680.680 1 108767043.376 1
  23022139.949 2 123066600.171 1
  21289269.178 1 113723298.676 1
  24679197.710 1 129690090.414 1
  22184497.760 1 116580299.973 1
  23033395.012 1 121041307.167 1
 19 11  9 18 12 32.9990053  0 15R 9G 5G24R20R19G 2G31G25R21G12R 5R16
                                G20G29G21
  19064283.585 1 101802204.381 1
  22166921.133 1 116487970.327 1
  22565441.283 1 118582162.691 1
  20901594.015 1 111770300.757 1
  22854260.120 2 122254878.751 1
  23656511.645 1 124315812.100 1
  24456674.278 1 128520689.284 1
  20879823.575 1 109724253.918 1
  22717502.787 1 121565866.217 1
  20697736.626 1 108767335.702 1
  23021668.514 2 123064079.392 1
  21289974.341 1 113727064.147 1
  24678545.107 1 129686660.251 1
  22184436.859 1 116579981.407 1
  23032879.568 1 121038598.997 1
 19 11  9 18 12 33.9990053  0 15R 9G 5G24R20R19G 2G31G25R21G12R 5R16
                                G20G29G21
  19064210.434 1 101801815.033 1
  22166978.998 1 116488275.950 1
  22566013.650 1 118585171.247 1
  20901806.733 1 111771437.789 1
  22854735.185 2 122257422.244 1
  23657156.710 1 124319199.955 1
  24456182.322 2 128518107.971 1
  20879417.195 1 109722120.005 1
  22717287.032 1 121564714.282 1
  20697792.501 1 108767628.653 1
  23021197.009 2 123061558.759 1
  21290679.505 1 113730830.178 1
  24677892.608 1 129683230.095 1
  22184376.202 1 116579662.937 1
  23032364.367 1 121035891.280 1
 19 11  9 18 12 34.9990053  0 15R 9G 5G24R20R19G 2G31G25R21G12R 5R16
                                G20G29G21
  19064137.248 1 101801426.420 1
  22167037.212 1 116488581.959 1
  22566586.052 1 118588179.798 1
  20902019.207 1 111772574.871 1
  22855210.459 2 122259965.433 1
  23657801.286 1 124322587.697 1
  24455690.784 2 128515526.936 1
  20879011.407 1 109719986.302 1
  22717071.662 1 121563562.589 1
  20697848.307 1 108767921.982 1
  23020725.295 2 123059038.033 1
  21291384.808 1 113734596.540 1
  24677240.040 1 129679799.696 1
  22184315.754 1 116579344.331 1
  23031849.028 1 121033183.752 1
 19 11  9 18 12 35.9990053  0 16R 9G15G 5G24R20R19G 2G31G25R21G12R 5
                                R16G20G29G21
  19064064.446 1 101801038.851 1
  24838361.076 9                
  22167095.635 1 116488888.655 1
  22567158.559 1 118591188.578 1
  20902231.890 1 111773712.316 1
  22855685.978 2 122262508.545 1
  23658446.072 1 124325975.626 1
  24455199.281 2 128512946.508 1
  20878605.376 1 109717853.041 1
  22716856.326 1 121562411.416 1
  20697904.288 1 108768215.959 1
  23020253.441 2 123056517.515 1
  21292090.390 1 113738363.456 1
  24676587.297 1 129676369.299 1
  22184254.992 1 116579025.838 1
  23031334.037 1 121030476.691 1
 19 11  9 18 12 36.9990053  0 15R 9G 5G24R20R19G 2G31G25R21G12R 5R16
                                G20G29G21
  19063991.608 1 101800652.007 1
  22167154.163 1 116489195.754 1
  22567730.891 1 118594197.318 1
  20902444.643 1 111774849.812 1
  22856161.496 2 122265051.317 1
  23659091.032 1 124329363.424 1
  24454707.604 2 128510366.325 1
  20878199.553 1 109715719.967 1
  22716640.781 1 121561260.486 1
  20697960.058 1 108768510.284 1
  23019781.762 2 123053996.850 1
  21292795.867 1 113742130.605 1
  24675934.554 1 129672938.652 1
  22184194.336 1 116578707.173 1
  23030819.500 1 121027769.780 1
 19 11  9 18 12 37.9990053  0 16R 9G15G 5G24R20R19G 2G31G25R21G12R 5
                                R16G20G29G21
  19063919.050 1 101800266.040 1
  24838228.629 9               6
  22167212.586 1 116489503.352 1
  22568303.468 1 118597206.152 1
  20902657.326 1 111775987.492 1
  22856636.840 2 122267593.866 1
  23659735.363 1 124332751.245 1
  24454216.415 2 128507786.540 1
  20877793.801 1 109713587.198 1
  22716425.934 1 121560109.939 1
  20698016.283 1 108768805.114 1
  23019309.803 2 123051476.165 1
  21293501.240 1 113745898.172 1
  24675281.323 1 129669507.838 1
  22184133.679 1 116578388.483 1
  23030304.195 1 121025063.182 1
 19 11  9 18 12 38.9990053  0 16R 9G15G 5G24R20R19G 2G31G25R21G12R 5
                                R16G20G29G21
  19063847.086 1 101799880.919 1
  24838176.872 9 130525455.90033
  22167271.114 1 116489811.481 1
  22568876.358 1 118600215.023 1
  20902870.149 1 111777125.309 1
  22857112.359 2 122270136.180 1
  23660379.591 1 124336139.053 1
  24453725.506 2 128505207.152 1
  20877387.874 1 109711454.722 1
  22716211.191 1 121558959.731 1
  20698072.508 1 108769100.397 1
  23018837.845 2 123048955.488 1
  21294206.857 1 113749666.117 1
  24674628.580 1 129666076.862 1
  22184072.847 1 116578069.737 1
  23029789.344 1 121022356.856 1
 19 11  9 18 12 39.9990053  0 16R 9G15G 5G24R20R19G 2G31G25R21G12R 5
                                R16G20G29G21
  19063775.156 1 101799496.549 1
  24838118.623 8 130525139.35123
  22167329.677 1 116490119.984 1
  22569448.970 1 118603223.826 1
  20903082.832 1 111778263.179 1
  22857587.423 2 122272678.134 1
  23661023.853 1 124339526.736 1
  24453234.561 2 128502628.067 1
  20876982.156 1 109709322.414 1
  22715996.414 1 121557809.749 1
  20698128.872 1 108769396.048 1
  23018366.096 2 123046434.706 1
  21294912.578 1 113753434.351 1
  24673975.907 1 129662645.623 1
  22184012.434 1 116577750.820 1
  23029274.318 1 121019650.718 1
 19 11  9 18 12 40.9990053  0 16R 9G15G 5G24R20R19G 2G31G25R21G12R 5
                                R16G20G29G21
  19063703.470 1 101799113.090 1
  24838061.735 4 130524822.51822
  22167388.310 1 116490429.088 1
  22570021.442 1 118606232.798 1
  20903295.969 1 111779401.274 1
  22858062.558 2 122275219.945 1
  23661668.673 1 124342914.508 1
  24452743.931 2 128500049.434 1
  20876576.753 1 109707190.489 1
  22715781.497 1 121556660.214 1
  20698185.515 1 108769692.263 1
  23017894.242 2 123043913.966 1
  21295618.335 1 113757203.069 1
  24673322.920 1 129659214.315 1
  22183951.428 1 116577431.923 1
  23028759.257 1 121016944.948 1
 19 11  9 18 12 41.9990053  0 16R 9G15G 5G24R20R19G 2G31G25R21G12R 5
                                R16G20G29G21
  19063631.715 1 101798730.494 1
  24837994.412 4 130524505.37122
  22167447.362 1 116490738.666 1
  22570594.053 1 118609241.789 1
  20903509.176 1 111780539.511 1
  22858537.797 2 122277761.515 1
  23662313.389 1 124346302.258 1
  24452253.650 1 128497471.205 1
  20876171.070 1 109705058.827 1
  22715566.929 1 121555510.968 1
  20698241.984 1 108769988.929 1
  23017422.353 2 123041393.236 1
  21296324.092 1 113760972.183 1
  24672670.247 1 129655782.840 1
  22183890.562 1 116577112.962 1
  23028244.790 1 121014239.428 1
 19 11  9 18 12 42.9990053  0 16R 9G15G 5G24R20R19G 2G31G25R21G12R 5
                                R16G20G29G21
  19063560.204 1 101798348.806 1
  24837937.629 8 130524188.01922
  22167506.029 1 116491048.817 1
  22571166.560 1 118612250.889 1
  20903721.929 1 111781677.975 1
  22859012.862 2 122280302.931 1
  23662958.105 1 124349690.069 1
  24451763.473 2 128494893.406 1
  20875765.702 1 109702927.512 1
  22715352.117 1 121554362.187 1
  20698298.488 1 108770286.126 1
  23016950.394 2 123038872.539 1
  21297029.918 1 113764741.740 1
  24672017.259 1 129652351.246 1
  22183830.045 1 116576794.005 1
  23027729.764 1 121011534.281 1
 19 11  9 18 12 43.9990053  0 16R 9G15G 5G24R20R19G 2G31G25R21G12R 5
                                R16G20G29G21
  19063488.937 1 101797967.891 1
  24837877.007 8 130523870.28422
  22167564.906 1 116491359.379 1
  22571739.311 1 118615259.952 1
  20903934.996 1 111782816.515 1
  22859487.996 2 122282844.044 1
  23663602.960 1 124353077.765 1
  24451273.122 1 128492315.926 1
  20875360.298 1 109700796.407 1
  22715137.235 1 121553213.653 1
  20698355.131 1 108770583.714 1
  23016478.750 2 123036351.735 1
  21297735.744 1 113768511.602 1
  24671363.644 1 129648919.408 1
  22183769.493 1 116576474.905 1
  23027214.983 1 121008829.317 1
 19 11  9 18 12 44.9990053  0 16R 9G15G 5G24R20R19G 2G31G25R21G12R 5
                                R16G20G29G21
  19063417.287 1 101797587.873 1
  24837819.666 8 130523552.27623
  22167624.097 1 116491670.500 1
  22572311.713 1 118618269.146 1
  20904147.994 1 111783955.279 1
  22859963.096 2 122285384.957 1
  23664247.431 1 124356465.526 1
  24450782.736 2 128489738.905 1
  20874954.790 1 109698665.650 1
  22714922.353 1 121552065.519 1
  20698411.740 1 108770881.824 1
  23016007.245 2 123033830.978 1
  21298441.641 1 113772281.917 1
  24670710.552 1 129645487.485 1
  22183708.801 1 116576155.806 1
  23026700.306 1 121006124.703 1
 19 11  9 18 12 45.9990053  0 16R 9G15G 5G24R20R19G 2G31G25R21G12R 5
                                R16G20G29G21
  19063345.950 1 101797208.950 1
  24837756.601 4 130523234.21122
  22167683.672 1 116491982.362 1
  22572884.848 1 118621278.609 1
  20904361.340 1 111785094.452 1
  22860438.545 1 122287925.891 1
  23664891.973 1 124359853.506 1
  24450292.594 2 128487162.506 1
  20874549.491 1 109696535.401 1
  22714708.030 1 121550917.926 1
  20698468.418 1 108771180.645 1
  23015535.705 2 123031310.449 1
  21299147.397 1 113776052.835 1
  24670057.111 1 129642055.613 1
  22183647.969 1 116575836.869 1
  23026185.699 1 121003420.604 1
 19 11  9 18 12 46.9990053  0 16R 9G15G 5G24R20R19G 2G31G25R21G12R 5
                                R16G20G29G21
  19063274.649 1 101796830.798 1
  24837697.200 4 130522915.76122
  22167743.457 1 116492294.676 1
  22573457.704 1 118624288.059 1
  20904574.721 1 111786233.737 1
  22860913.470 2 122290466.503 1
  23665536.549 1 124363241.435 1
  24449801.894 2 128484586.428 1
  20874144.367 1 109694405.390 1
  22714493.532 1 121549770.658 1
  20698525.271 1 108771479.904 1
  23015064.305 2 123028789.835 1
  21299853.433 1 113779824.101 1
  24669403.915 1 129638623.530 1
  22183587.138 1 116575517.842 1
  23025671.267 1 121000716.723 1
 19 11  9 18 12 47.9990053  0 16R 9G15G 5G24R20R19G 2G31G25R21G12R 5
                                R16G20G29G21
  19063203.556 1 101796453.254 1
  24837635.531 8 130522596.72723
  22167803.206 1 116492607.251 1
  22574030.315 1 118627297.335 1
  20904788.172 1 111787372.941 1
  22861388.465 2 122293006.675 1
  23666181.090 1 124366629.105 1
  24449311.473 2 128482010.489 1
  20873739.278 1 109692275.427 1
  22714279.034 1 121548623.483 1
  20698582.124 1 108771779.376 1
  23014593.114 2 123026268.942 1
  21300559.574 1 113783595.494 1
  24668750.474 1 129635191.026 1
  22183526.481 1 116575198.502 1
  23025156.764 1 120998012.889 1
 19 11  9 18 12 48.9990053  0 16R 9G15G 5G24R20R19G 2G31G25R21G12R 5
                                R16G20G29G21
  19063133.023 2 101796076.566 1
  24837572.885 4 130522277.48223
  22167863.061 1 116492920.341 1
  22574602.892 1 118630306.712 1
  20905001.379 1 111788512.365 1
  22861863.809 2 122295546.616 1
  23666825.596 1 124370016.785 1
  24448821.227 2 128479434.986 1
  20873334.188 1 109690145.765 1
  22714064.501 1 121547476.711 1
  20698639.500 1 108772079.349 1
  23014121.854 2 123023748.099 1
  21301265.644 1 113787367.326 1
  24668097.522 1 129631758.387 1
  22183465.929 1 116574879.124 1
  23024642.018 1 120995309.358 1
 19 11  9 18 12 49.9990053  0 16R 9G15G 5G24R20R19G 2G31G25R21G12R 5
                                R16G20G29G21
  19063062.245 1 101795700.770 1
  24837513.345 4 130521957.94522
  22167922.671 1 116493233.962 1
  22575175.329 1 118633316.151 1
  20905214.621 1 111789651.939 1
  22862339.187 2 122298086.326 1
  23667470.103 1 124373404.495 1
  24448331.608 2 128476859.887 1
  20872929.169 1 109688016.426 1
  22713850.317 1 121546330.272 1
  20698696.318 1 108772379.800 1
  23013650.733 2 123021227.265 1
  21301971.785 1 113791139.561 1
  24667444.151 1 129628325.647 1
  22183404.818 1 116574559.706 1
  23024127.620 1 120992606.135 1
